station_id,station_num,station_name,gu,address,lat,lon,monthly_usage,total_rent,total_return,rent_202507,rent_202508,rent_202509,rent_202510,rent_202511
ST-2715,2715,2715.마곡나루역 2번 출구 ,강서구,서울특별시 노원구 서울 노원구 공릉동 547-1 ,37.625336,127.07019,15448,77240,79279,15460,15117,17664,14782,14217
ST-2728,2728,2728.마곡나루역 3번 출구,강서구,서울특별시 송파구 백제고분로 11 신천중학교 ,37.516403,127.077614,10614.4,53072,52534,10959,10879,11627,9488,10119
ST-1210,1210,1210. 롯데월드타워(잠실역2번출구 쪽),송파구,서울특별시 성북구 길음로13길 22 길음8골어린이공원 옆,37.608978,127.020248,10446,52230,52053,10084,9508,11755,10903,9980
ST-2701,2701,2701. 마곡나루역 5번출구 뒤편,강서구,서울특별시 노원구 서울 노원구 덕릉로83길 5 ,37.659557,127.075256,9704,48520,48886,10021,9422,10327,8905,9845
ST-230,230,230. 영등포구청역 7번출구,영등포구,서울특별시 서대문구 충정로2가 138 서대문역 8번출구 앞,37.564777,126.966148,8465.8,42329,40833,9136,8434,8989,7928,7842
ST-1153,1153,"1153. 발산역 1번, 9번 인근 대여소",강서구,서울특별시 동작구 흑석동 27-83 한강 현대아파트 건너편,37.505928,126.969231,8087.8,40439,40282,8180,8247,8643,7520,7849
ST-502,502,502. 자양(뚝섬한강공원)역 1번출구 앞,광진구,서울특별시 강동구 성내동 434-28 ,37.526794,127.130058,7659,38295,42688,9084,7582,9429,7173,5027
ST-2608,2608,2608. 송파구청,송파구,서울특별시 송파구 올림픽로 424 ,37.520218,127.114571,6621,33105,34445,6491,6199,6741,7109,6565
ST-1124,1124,1124. 발산역 6번 출구 뒤,강서구,서울특별시 노원구 노원로 434 상계2차중앙하이츠아파트 ,37.655018,127.067505,6475.8,32379,32463,6529,6613,7038,6053,6146
ST-2622,2622,2622. 올림픽공원역 3번출구,송파구,서울특별시 종로구 평창동 290-15 ,37.604698,126.964516,6392.6,31963,31773,5915,6004,7722,6477,5845
ST-1911,1911,1911. 구로디지털단지역 앞,구로구,서울특별시 서초구 신반포로 143 경남쇼핑센터 ,37.504787,126.999924,6038,30190,30984,5885,6050,6949,6003,5303
ST-769,769,769.CBS방송국 앞,양천구,서울특별시 서초구 바우뫼로1길 35 서초구 양재동 20-40,37.477852,127.03891,5961.8,29809,30506,5795,6332,6354,5850,5478
ST-1160,1160,1160. 양천향교역 7번출구앞,강서구,서울특별시 서초구 서초동 1389 서초4동주민센터,37.502319,127.02227,5939.2,29696,29254,5926,6132,6678,5576,5384
ST-1166,1166,1166. 강서구립등빛도서관,강서구,서울특별시 서초구 양재동 316-10 ,37.469242,127.039825,5928.6,29643,29552,6207,6168,6371,5482,5415
ST-785,785,"785.양천구청, 보건소 사잇길",양천구,서울특별시 강남구 자곡로 101 래미안강남힐즈 앞,37.472919,127.095886,5848.6,29243,29913,5558,6048,6639,5628,5370
ST-792,792,792.목동트라팰리스 웨스턴에비뉴,양천구,서울특별시 강남구 압구정로 339-2 가로판매 ,37.528381,127.039017,5793.8,28969,29458,5569,5905,6205,5657,5633
ST-2102,2102,2102. 봉림교 교통섬,관악구,서울특별시 도봉구 삼양로 590 ,37.655685,127.013382,5716.2,28581,29508,5588,6134,6775,5578,4506
ST-2733,2733,2733.마곡13단지 정문 앞,강서구,서울특별시 강동구 강동구 고덕로 130 ,37.554688,127.139404,5705,28525,27200,5654,5757,6180,5327,5607
ST-272,272,272. 당산육갑문,영등포구,서울특별시 동대문구 신설동 92-34 신설동역 10번출구 앞,37.575272,127.023468,5606.6,28033,28826,5299,6057,6984,5527,4166
ST-765,765,765. 오목교역 3번출구,양천구,서울특별시 서초구 서초대로 지하 294 서초구 서초동 1748-6,37.494217,127.013786,5569.6,27848,29893,5608,5921,5838,5272,5209
ST-2721,2721,2721.등촌1-10단지 교차로,강서구,서울특별시 노원구 상계동 620 ,37.670868,127.05114,5430.4,27152,26648,5723,5536,6163,4976,4754
ST-1050,1050,1050.  둔촌역 3번 출입구,강동구,서울특별시 강동구 고덕동 469 ,37.557934,127.144768,5351.6,26758,27485,6061,5527,6240,4635,4295
ST-2620,2620,2620. 송파나루역 4번 출구옆,송파구,서울특별시 송파구 성내천로35길 53 ,37.500034,127.159248,5251.6,26258,27319,5096,5483,5918,5186,4575
ST-113,113,113. 홍대입구역 2번출구 앞,마포구,서울특별시 광진구 자양로3길 7 광양중학교 앞,37.530235,127.08683,5247.6,26238,31843,5156,5144,5889,5066,4983
ST-583,583,583. 청계천 생태교실 앞,성동구,서울특별시 중랑구 신내역로1길 164 새솔초등학교,37.617439,127.109016,5241.4,26207,27276,4730,5344,6656,5782,3695
ST-781,781,781.신정보도육교 아래,양천구,서울특별시 서초구 바우뫼로12길 70 더케이호텔 입구(양재2),37.467506,127.034477,5229.2,26146,26325,5472,5466,5470,4758,4980
ST-529,529,529. 장한평역 8번 출구 앞,성동구,서울특별시 강서구 등촌로51나길 29 강서구 등촌동 520-6,37.548061,126.86042,5213,26065,25331,5402,5050,5905,4979,4729
ST-1151,1151,1151. 마곡역1번출구,강서구,서울특별시 동작구 신대방동 395 보라매공원 정문,37.497078,126.917793,5058,25290,26656,5049,4708,5649,4885,4999
ST-1867,1867,1867.대륭포스트타워6차 앞,금천구,서울특별시 송파구 잠실로 88 레이크팰리스 ,37.507759,127.091293,5016,25080,26829,5417,4935,5470,4529,4729
ST-2717,2717,2717.LG유플러스 마곡사옥,강서구,서울특별시 노원구 노원구 상계동 197-38 ,37.653519,127.071304,4994.8,24974,28342,5291,4721,5489,4632,4841
ST-1906,1906,1906. 신도림역 1번 출구 앞,구로구,서울특별시 서초구 서초동 1688-12 ,37.495564,127.01918,4989.6,24948,24929,4853,4777,5886,4906,4526
ST-247,247,247. 당산역 10번출구 앞,영등포구,서울특별시 성동구 응봉동 134-26 응봉삼거리,37.553986,127.033592,4791.6,23958,24144,5697,5634,6000,4959,1668
ST-1222,1222,1222. 잠실새내역 5번 출구 뒤,송파구,서울특별시 구로구 공원로 68 화광신문사 앞,37.50285,126.889481,4710.4,23552,24117,4542,4878,5478,4694,3960
ST-1625,1625,1625. 상계역 3번출구,노원구,서울특별시 동대문구 경희대로 23 경희의료원 ,37.594601,127.051971,4705.2,23526,23455,4882,4926,4883,4473,4362
ST-2739,2739,2739.수명산파크1단지교차로,강서구,서울특별시 강동구 상일동 133 ,37.550583,127.165421,4665.2,23326,23349,4571,4749,5220,4398,4388
ST-508,508,508. 성수아카데미타워 앞,성동구,서울특별시 강서구 양천로17길 6 강서구 방화동 769-23,37.573643,126.811806,4662.4,23312,21965,5142,4210,4906,4389,4665
ST-726,726,726. 목동3단지 시내버스정류장,양천구,서울특별시 동작구 상도로 지하 2 동작구 대방동 466-51,37.500076,126.921082,4661.4,23307,23841,5267,4678,4873,4250,4239
ST-1152,1152,1152. 마곡역교차로,강서구,서울특별시 동작구 사당동 1131 남성역3번출구 뒤,37.484631,126.97155,4612.2,23061,24561,4883,4570,5022,4099,4487
ST-207,207,207. 여의나루역 1번출구 앞,영등포구,서울특별시 마포구 노고산동 112-13 서강대역 2번출구 앞,37.552956,126.934341,4577.4,22887,21591,4951,6305,5597,3837,2197
ST-1019,1019,1019. 다성이즈빌아파트(호원대 대각선 맞은편),강동구,서울특별시 양천구 안양천로 939 목동운동장,37.530251,126.879303,4493.4,22467,23761,4720,4796,4833,4100,4018
ST-1158,1158,1158. 가양역 8번출구,강서구,서울특별시 서초구 반포대로 121 ,37.490536,127.008049,4389.2,21946,22307,4639,4395,4917,4211,3784
ST-708,708,708. 서울출입국관리사무소 앞,양천구,서울특별시 관악구 남부순환로 지하 1614 관악구 신림동 1467-10,37.484409,126.928909,4385,21925,22514,4376,4508,4752,4111,4178
ST-797,797,797.목동아파트 1422동 1434동 사잇길,양천구,서울특별시 강남구 테헤란로 501 포스코사거리(기업은행),37.507233,127.056854,4334,21670,21840,4363,4349,4775,4027,4156
ST-585,585,585. 성수2가1동 공영주차장 인근,성동구,서울특별시 중랑구 신내로16길 33 신내동 의료안심주택 ,37.613945,127.097702,4314.4,21572,22180,4351,4313,4866,4345,3697
ST-770,770,770.목동역5번출구,양천구,서울특별시 서초구 바우뫼로18길 14 서초구 양재동 127-1,37.473614,127.03051,4286.8,21434,22984,4370,4165,4698,4031,4170
ST-1190,1190,1190. 마곡역 교차로(2번출구),강서구,서울특별시 서대문구 연희로 113 ,37.567997,126.931656,4204.2,21021,20939,3606,3629,4814,4677,4295
ST-1601,1601,1601. 석계역 문화광장 내 자전거 보관소,노원구,서울특별시 성동구 난계로 100 왕십리 자이아파트 103동 인근,37.56179,127.024391,4140.2,20701,22331,4028,3910,4622,4172,3969
ST-1078,1078,1078.둔촌사거리,강동구,서울특별시 송파구 오금동 17-20 방이역 1번출구,37.508984,127.126595,4108.6,20543,20964,3895,4167,4573,3846,4062
ST-1608,1608,1608. 공릉역 1번 출구 앞,노원구,서울특별시 종로구 종로 254-1 삼익한의원,37.570961,127.006058,4099.6,20498,21547,4066,4037,4760,3959,3676
ST-1167,1167,1167. 마곡수명산파크3단지 교차로,강서구,서울특별시 서초구 헌릉로 73 서초경찰서 염곡치안센터 ,37.461494,127.049072,4067.4,20337,19904,4076,4055,4440,3851,3915
ST-1020,1020,1020. 강동경찰서,강동구,서울특별시 은평구 신사동 41-3 신사동 성당,37.597141,126.909599,4052.8,20264,20567,4190,4078,4575,3526,3895
ST-240,240,240. 문래역 4번출구 앞,영등포구,서울특별시 성동구 금호동2가 1220-1 래미안금호하이리버 아파트 102동 옆,37.5522,127.025055,4052.4,20262,18610,2351,4409,4770,4300,4432
ST-209,209,209. 유진투자증권빌딩 앞,영등포구,서울특별시 마포구 월드컵로25길 202 ,37.556324,126.897095,4037.6,20188,21473,3759,3819,4725,4165,3720
ST-263,263,263. 근로자회관 사거리,영등포구,서울특별시 동대문구 답십리로 210-3 동대문구 체육관,37.572655,127.063637,4024,20120,20771,4088,4216,4386,3714,3716
ST-2639,2639,2639.석촌역 8번출구,송파구,서울특별시 금천구 시흥동 1000-48 알레르망 가게 앞 ,37.454151,126.900452,3999.8,19999,19631,3962,4012,4396,3893,3736
ST-1157,1157,1157. 강서구청,강서구,서울특별시 동작구 관악로 145 관악구 보건소,37.478626,126.951294,3938.6,19693,20702,4020,3724,4539,3738,3672
ST-1084,1084,1084. 윤선생빌딩(JYP사옥),강동구,서울특별시 송파구 문정동 38-3 문정동 근린공원,37.485989,127.124763,3897,19485,22003,3899,3988,4285,3578,3735
ST-787,787,787.양천아파트 입구,양천구,서울특별시 강남구 봉은사로 지하 102 교보타워 버스정류장,37.505581,127.024277,3894.8,19474,19293,3726,3960,4248,3737,3803
ST-1149,1149,1149. 신방화역환승주차장,강서구,서울특별시 금천구 가산동 60-73 벽산 디지털밸리 5차,37.476276,126.885391,3893.8,19469,19347,4003,3931,4198,3491,3846
ST-1044,1044,1044. 굽은다리역,강동구,서울특별시 강동구 천호대로 1240 프라자아파트 ,37.535961,127.14782,3893.4,19467,20426,3913,3936,4385,3676,3557
ST-1011,1011,1011. LIGA 아파트 앞,강동구,서울특별시 양천구 가로공원로 133 으뜸공원,37.536369,126.831711,3889,19445,19394,4277,4027,4410,3524,3207
ST-202,202,202. 국민일보 앞,영등포구,서울특별시 마포구 공덕동 438-5 공덕역 8번출구,37.543579,126.951324,3871.4,19357,20071,4077,3683,4673,3602,3322
ST-746,746,746. 목동2단지 상가,양천구,서울특별시 서초구 고무래로 89 반포써밋 ,37.500652,127.018616,3859.2,19296,19305,3636,4026,4166,3632,3836
ST-1184,1184,1184. 마곡13단지,강서구,서울특별시 강남구 수서동 728 수서역 1번출구 앞,37.48735,127.100998,3856.4,19282,20531,4004,3867,4119,3543,3749
ST-2719,2719,2719.마곡문화공원,강서구,서울특별시 노원구 서울 노원구 한글비석로 268 ,37.651497,127.077042,3854.6,19273,21524,3864,3823,4184,3528,3874
ST-2646,2646,2646.레이크펠리스101동앞,송파구,서울특별시 영등포구 영등포구 의사당대로 1 ,37.53054,126.918175,3806.6,19033,19662,3778,3877,4241,3664,3473
ST-1925,1925,1925. 동양미래대학교 정문 옆,구로구,서울특별시 서초구 신원동 66-8 ,37.430977,127.070335,3778.8,18894,18828,3364,3878,4222,3869,3561
ST-795,795,795.양천 해누리타운,양천구,서울특별시 강남구 영동대로 703 청담역 13번 출구 앞,37.52058,127.056328,3769.2,18846,18728,3802,3777,3994,3610,3663
ST-243,243,243. 이앤씨드림타워 앞,영등포구,서울특별시 성동구 용답동 224-3 장안평역 8번 출구 앞,37.561371,127.06366,3755.8,18779,19024,3868,3887,3911,3532,3581
ST-217,217,217. NH농협은행 앞,영등포구,서울특별시 서대문구 북아현동 251-78 아현동 가구거리,37.557549,126.959381,3734.4,18672,19204,3810,3551,4214,3557,3540
ST-2136,2136,2136. 신림역 8번출구,관악구,서울특별시 강북구 삼양로 504 광리빌딩 ,37.647934,127.014572,3719,18595,19688,3986,3930,4138,3378,3163
ST-703,703,703. 오목교역 7번출구 앞,양천구,서울특별시 관악구 관천로27길 2 신사동 우방아파트,37.489178,126.919273,3707.4,18537,19914,3569,3860,3936,3579,3593
ST-2628,2628,2628.문정역 1번출구,송파구,서울특별시 중랑구 신내동278-50 ,37.615711,127.101044,3701,18505,19669,3880,3842,4032,3472,3279
ST-1985,1985,1985. 구로도서관,구로구,서울특별시 영등포구 도신로29길 28 영등포푸르지오 ,37.512024,126.901054,3699.4,18497,17010,3637,3988,4300,3335,3237
ST-1637,1637,1637. KT 전화국 버스정류장 옆,노원구,서울특별시 성북구 하월곡동 46-126 ,37.602356,127.039078,3654.6,18273,18589,3822,3849,3610,3527,3465
ST-1173,1173,1173. 강서구청사거리(SH타워),강서구,서울특별시 강남구 도산대로 229 도산대로 렉서스 앞,37.52124,127.031899,3639,18195,17966,3926,3844,4140,3206,3079
ST-1191,1191,"1191. 마곡역 버스정류장(마곡나루역1번출구, 웰튼병원 방면)",강서구,서울특별시 광진구 자양동 203-22 영동대교 북단,37.537014,127.061096,3639,18195,18106,3380,3651,4112,3610,3442
ST-907,907,907. CJ 드림시티,은평구,서울특별시 송파구 법원로 101 문정동 627,37.478821,127.123512,3637.4,18187,21787,3454,3660,4426,3783,2864
ST-779,779,779. 신정1동 주민센터 앞,양천구,서울특별시 강남구 헌릉로590길 10 리엔파크 2단지 앞,37.465061,127.101196,3631,18155,20193,3772,3664,3832,3438,3449
ST-3219,3219,3219.영등포역 1번출구,영등포구,서울특별시 금천구 디지털로10길 78 가산테라타워 ,37.475204,126.890129,3597.8,17989,21688,3683,3580,3822,3434,3470
ST-1182,1182,1182. KBS 스포츠월드,강서구,서울특별시 강남구 개포동 181-3 개포동역 사거리,37.489277,127.065575,3595,17975,17976,3796,3689,4189,3118,3183
ST-2824,2824,2824.미래사랑어린이공원 앞,구로구,서울특별시 은평구 은평구 갈현로 301 ,37.623608,126.916885,3582.4,17912,18015,3778,3533,3951,3380,3270
ST-565,565,565. 옥수역 3번출구,성동구,서울특별시 성북구 종암로3길 37-2 성북구 종암동 12-33,37.598068,127.039276,3576.2,17881,18732,4002,4428,4637,2775,2039
ST-431,431,431. 청계천 영도교,중구,서울특별시 양천구 등촌로 22-1 가로판매대6 ,37.531097,126.864029,3555.2,17776,18033,3660,3419,3923,3403,3371
ST-1295,1295,1295. 잠실역 8번출구,송파구,서울특별시 도봉구 해등로 46 창1동주민센터,37.647503,127.043312,3530.2,17651,17611,3360,3202,4027,3815,3247
ST-1024,1024,1024.  강동구청 앞,강동구,서울특별시 은평구 진관동 44-28 금암 문화공원,37.644684,126.918457,3527.2,17636,18063,3490,3554,3955,3327,3310
ST-236,236,236. 문래동자이아파트 앞,영등포구,서울특별시 성동구 하왕십리동 960-3 상왕십리역 4번 출구 앞,37.563858,127.030319,3513.2,17566,18378,3706,3560,3848,3390,3062
ST-2708,2708,2708.강서한강자이타워 앞,강서구,서울특별시 노원구 초안산로 89 월계청백1단지아파트 ,37.634594,127.052063,3508.4,17542,17718,3452,3463,3932,3508,3187
ST-996,996,996.응암역2번출구 국민은행 앞,은평구,서울특별시 양천구 남부순환로88길5-16 양강중학교앞 교차로,37.524334,126.850548,3506.2,17531,25369,3586,3509,4082,3398,2956
ST-584,584,584. 광진광장 교통섬,광진구,서울특별시 중랑구 신내역로 165 신내 데시앙포레 ,37.616707,127.11026,3502.2,17511,13316,3779,3335,4031,3312,3054
ST-1010,1010,1010. 강동세무서,강동구,서울특별시 양천구 남부순환로 334 ,37.536995,126.827286,3497.2,17486,17670,3902,3494,3870,3223,2997
ST-853,853,853.용산역 맞은편,용산구,서울특별시 중랑구 숙선옹주로 66 중랑구 묵동 20-3,37.616024,127.085968,3485,17425,17742,3073,3589,4298,3691,2774
ST-2623,2623,2623.석촌동 주민센터,송파구,서울특별시 종로구 돈화문로11가길 59 ,37.575283,126.990623,3473,17365,16393,3533,3548,3729,3397,3158
ST-1653,1653,1653. 노원역1번출구,노원구,서울특별시 영등포구 영중로 107 영등포전화국사거리 (서강어린이공원),37.525768,126.905739,3440.4,17202,17277,3662,3475,3752,3253,3060
ST-744,744,744. 신목동역 2번 출구,양천구,서울특별시 서초구 헌릉로8길 42 서초구 내곡동 123-1,37.454357,127.062103,3433.2,17166,17018,3712,3560,3872,3067,2955
ST-280,280,280. 양평동6차현대아파트 앞,영등포구,서울특별시 영등포구 양평동1가 115-2 남부고용노동지청 남측,37.524506,126.891823,3396,16980,16807,3607,3560,3537,3064,3212
ST-1684,1684,1684. 태릉입구역 5번출구,노원구,서울특별시 송파구 풍성로5길 16 솔바람복지센타 ,37.536419,127.116165,3382,16910,17350,3284,3362,3949,3314,3001
ST-2621,2621,2621. 한성백제역 2번 출구,송파구,서울특별시 송파구 방이동 88-18 ,37.512756,127.126297,3379.6,16898,16944,2737,3262,4111,3646,3142
ST-1118,1118,1118. 증미역 3번출구뒤(등촌두산위브센티움오피스텔),강서구,서울특별시 노원구 중계동 506-3 중계근린공원내,37.63958,127.065102,3377,16885,19479,3381,3242,3894,3273,3095
ST-2219,2219,"2219. 고속터미널역 8-1번, 8-2번 출구 사이",서초구,서울특별시 서대문구 서소문로 45 SK리쳄블 ,37.561317,126.966583,3368.2,16841,16976,2962,3368,4129,3520,2862
ST-228,228,228. 선유도역 3번출구 앞,영등포구,서울특별시 서대문구 미근동 317-1 임광빌딩 앞,37.564724,126.967278,3368,16840,17674,3273,3479,3994,3358,2736
ST-2723,2723,2723.마곡 필네이처,강서구,서울특별시 도봉구 도봉구 도봉동 1-22 ,37.691013,127.049164,3367.2,16836,17451,3611,3367,3852,3055,2951
ST-3010,3010,3010.홍대입구역 3번출구,마포구,서울특별시 서초구 반포대로316옆 반포한강공원입구 ,37.507496,127.000183,3361.2,16806,17191,3344,3397,3829,3269,2967
ST-1106,1106,1106. 신방화사거리,강서구,서울특별시 강북구 번동 2-2 번3동 주민센터 교차로,37.626354,127.047447,3352,16760,17847,3405,3521,3819,3054,2961
ST-3202,3202,3202.당산롯데캐슬프레스티지,영등포구,서울특별시 서대문구 통일로 81 NH농협생명빌딩 ,37.562336,126.969093,3333.8,16669,16538,3418,3450,3738,3212,2851
ST-2720,2720,2720.힐스테이트에코,강서구,서울특별시 노원구 서울 노원구 월계동 700-6 ,37.642929,127.051949,3319.2,16596,16614,3555,3418,3539,3042,3042
ST-245,245,245. 삼성생명 당산사옥 앞,영등포구,서울특별시 성동구 금호동4가 1101 우리은행 금호동 지점 앞,37.548149,127.021088,3293.6,16468,16619,3441,3261,3450,3159,3157
ST-602,602,602. 장안동 사거리,동대문구,서울특별시 노원구 동일로 지하 992-1 노원구 공릉동 616-4,37.619171,127.074928,3289.4,16447,18367,3198,3298,3677,3324,2950
ST-1611,1611,1611. 과기대 입구(우),노원구,서울특별시 종로구 세종대로 152 일민미술관 ,37.569893,126.97757,3285.4,16427,16810,3273,3127,4025,3124,2878
ST-793,793,793.목동5단지아파트 534동,양천구,서울특별시 강남구 압구정로 311 압구정파출소 앞,37.529301,127.035599,3282.2,16411,16051,3257,3474,3502,3079,3099
ST-1264,1264,1264. 천호역 10번 출구 앞,송파구,서울특별시 관악구 남부순환로 1728 봉천역 2번출구,37.482189,126.942131,3280.4,16402,16407,3500,3200,3659,3031,3012
ST-791,791,791.현대하이페리온,양천구,서울특별시 강남구 압구정로 지하 172 압구정역 2번 출구 옆,37.527123,127.028717,3277.6,16388,16401,3337,3435,3554,3134,2928
ST-102,102,102. 망원역 1번출구 앞,마포구,서울특별시 광진구 아차산로 355 타워더모스트 광진아크로텔,37.53701,127.082245,3277.2,16386,16970,3319,3164,3818,3198,2887
ST-2704,2704,2704.홈플러스(강서점),강서구,서울특별시 노원구 초안산로5길 22 대우아파트 ,37.632843,127.052132,3270,16350,17040,3302,3320,3702,3136,2890
ST-1231,1231,1231. 잠실역 6번출구,송파구,서울특별시 구로구 오리로 1352 궁동생태공원,37.501904,126.828964,3259.6,16298,16744,2987,3357,3737,3305,2912
ST-731,731,731. 서울시 도로환경관리센터,양천구,서울특별시 동작구 사당로 169 동작구 사당동 211-2,37.486835,126.968048,3239,16195,16814,3135,3444,3628,3102,2886
ST-383,383,383. 신당역 12번 출구 뒤,중구,서울특별시 광진구 능동로 398 국립정신 건강센터 앞,37.56538,127.08651,3237.6,16188,16555,3649,3242,3776,2955,2566
ST-1674,1674,1674. 서울북부고용센터앞,노원구,서울특별시 은평구 갈현로3나길 23 역촌 센트레빌 아파트 107동 인근,37.602329,126.906548,3236.2,16181,16275,3350,3258,3568,3107,2898
ST-1297,1297,1297. 석촌호수교차로(동호 팔각정 앞),송파구,서울특별시 도봉구 도봉로173길 96 서울도봉초등학교인근,37.678677,127.040764,3235.8,16179,16170,3050,3271,3690,3357,2811
ST-1008,1008,1008. 암사역 3번출구(국민은행앞),강동구,서울특별시 양천구 신정동 1235 ,37.522312,126.849045,3229.6,16148,19095,3350,3162,3571,3081,2984
ST-794,794,794.양천문화회관,양천구,서울특별시 강남구 학동로 지하 508 청담동 맥도날드 옆,37.523613,127.040176,3210.4,16052,16342,3141,3370,3511,3036,2994
ST-1650,1650,1650. 중계근린공원내,노원구,서울특별시 영등포구 문래로 180 센트럴 푸르지오 시티 앞,37.518211,126.902229,3207,16035,16979,3824,3992,2347,2956,2916
ST-1293,1293,1293. 석촌호수 서호 사거리,송파구,서울특별시 도봉구 시루봉로 128 방학동학마을도서관,37.662079,127.027718,3206.4,16032,16484,3134,3280,3624,3119,2875
ST-2919,2919,2919.등나무 근린공원(시립북서울미술관 앞) ,노원구,서울특별시 송파구 송파구 풍납동 403-3 ,37.529148,127.116058,3195.6,15978,16390,3844,3709,2842,3412,2171
ST-361,361,361. 동묘앞역 1번출구 뒤,종로구,서울특별시 성동구 동일로 213 비전교회 앞,37.551205,127.068932,3183,15915,16911,3171,3260,3671,2984,2829
ST-788,788,788.양천구청역 2번출구 옆,양천구,서울특별시 강남구 학동로 102 논현역 ,37.511372,127.021461,3173.6,15868,16812,3140,3136,3551,2942,3099
ST-1029,1029,1029. 성내어울터,강동구,서울특별시 은평구 녹번동 84 은평구청 보건소,37.602402,126.92865,3172.4,15862,15730,3287,3274,3334,3025,2942
ST-631,631,631. 답십리역 1번출구,동대문구,서울특별시 금천구 시흥대로 287 독산동 1080-8,37.458912,126.89859,3165.8,15829,17844,3284,3086,3457,2925,3077
ST-275,275,275. 신동아아파트,영등포구,서울특별시 동대문구 전농동 135-5 시립대 앞,37.582561,127.054367,3164.2,15821,16484,3184,3106,3468,2923,3140
ST-259,259,259. 대방역6번출구,영등포구,서울특별시 광진구 구의동 96 아차산역 3번출구,37.551224,127.089706,3142.8,15714,16661,3166,3029,3599,3013,2907
ST-1192,1192,1192. 마곡수명산파크 209동 건너편,강서구,서울특별시 광진구 능동 465-7 어린이회관,37.545952,127.078003,3135.4,15677,12765,3294,3126,3582,2979,2696
ST-1103,1103,1103. 방화역 4번출구앞,강서구,서울특별시 강북구 미아동 194-1 미아동 한국전력공사,37.63018,127.02491,3108.2,15541,13923,3043,3334,3500,2924,2740
ST-734,734,734. 신트리공원 입구,양천구,서울특별시 도봉구 마들로 891 도봉동 22-26,37.688274,127.049065,3103,15515,15578,2987,3016,3323,3105,3084
ST-2641,2641,2641.송파역 4번출구,송파구,서울특별시 금천구 독산동 1080-1 에이스하드웨어 정문 앞 ,37.468658,126.898262,3101.2,15506,15601,3054,3146,3416,3113,2777
ST-931,931,931. 역촌파출소,은평구,서울특별시 성북구 동소문로13길 38 돈암초교,37.591694,127.012497,3093.2,15466,17665,3158,3154,3387,3014,2753
ST-2377,2377,2377. 수서역 5번출구,강남구,서울특별시 관악구 남부순환로 1538 ,37.482906,126.921455,3093,15465,16852,2953,3129,3331,3119,2933
ST-670,670,670.삼육서울병원 버스정류장,동대문구,서울특별시 구로구 구로중앙로 13 구로구 구로동 136-14,37.491032,126.892151,3085.4,15427,16503,2942,3227,3707,2811,2740
ST-1668,1668,1668. 중계역 6번출구,노원구,서울특별시 중구 을지로 지하 42 을지로입구역 1번출구,37.566345,126.982292,3080,15400,15959,3311,3231,3166,2867,2825
ST-290,290,290. 새말소공원,영등포구,서울특별시 영등포구 도림동 255-2 ,37.505016,126.898537,3060.2,15301,14493,3113,3219,3376,2788,2805
ST-2002,2002,2002. 노들역 1번출구,동작구,서울특별시 양천구 목동동로 441 공중화장실 ,37.538742,126.885681,3058.4,15292,17219,2631,3247,3882,3346,2186
ST-2744,2744,2744.강서세무서 앞,강서구,서울특별시 강동구 아리수로93가길 70 ,37.57074,127.172157,3014.8,15074,14697,3093,3122,3107,2815,2937
ST-2637,2637,2637. 아시아지하보도 14번 출구,송파구,서울특별시 금천구 범안로 1126(안양천 연결 엘리베이터) ,37.465576,126.887245,3014.2,15071,15214,2982,3203,3459,2934,2493
ST-278,278,278. 쌍용플레티넘오피스텔,영등포구,서울특별시 영등포구 양평동4가 202-1 선유도역 3번출구 앞,37.53846,126.894508,3008.8,15044,13845,3017,3193,3246,2842,2746
ST-755,755,755. 목동1단지아파트 상가 앞,양천구,서울특별시 서초구 방배로9길 23 서초구 방배동 504-4,37.473759,126.995247,2988.8,14944,14913,3068,2876,3204,2897,2899
ST-1150,1150,1150. 송정역 1번출구,강서구,서울특별시 동작구 노량진동 113-7 노량진동 맥도널드앞,37.513523,126.943527,2972.8,14864,15084,2890,3090,3364,2818,2702
ST-1163,1163,1163. 방화동강서기동대앞,강서구,서울특별시 서초구 방배동 875-9 ,37.488022,126.994118,2972.4,14862,15141,3019,2960,3213,2762,2908
ST-1180,1180,1180. 마곡엠밸리 15단지(1502동) 건너편,강서구,서울특별시 강남구 언주로 651 한국우편사업진흥원,37.514748,127.035133,2969.8,14849,15204,3157,3025,3180,2749,2738
ST-147,147,147. 마포역 4번출구 뒤,마포구,서울특별시 중구 을지로 79 을지로2가 사거리 북측,37.566383,126.987206,2953,14765,18192,2477,2947,3920,3068,2353
ST-283,283,283. 아크로타워 스퀘어(영등포시장),영등포구,서울특별시 영등포구 신길동 399 영등포구민체육센터 앞,37.500462,126.905846,2946.8,14734,13624,3026,3115,3359,2740,2494
ST-232,232,232. 양평우림 이비즈센타 앞,영등포구,서울특별시 서대문구 수색로 27 가좌역 ,37.568775,126.915298,2940.8,14704,14721,3115,3013,3139,2713,2724
ST-780,780,780.신정교 하부,양천구,"서울특별시 서초구 잠원로4길 지하 46 잠원역 3,4번 출구사이",37.512989,127.011177,2938,14690,15876,2597,2867,3516,3233,2477
ST-1908,1908,1908. 해원리바파크 육교 밑,구로구,서울특별시 서초구 잠원로 69 킴스클럽 ,37.510193,127.007256,2919.6,14598,14377,2884,2975,3179,2696,2864
ST-296,296,296.KT플라자 영등포점,영등포구,서울특별시 영등포구 여의도동8-13 초원아파트 앞,37.531055,126.92421,2905.6,14528,13810,2965,2954,3215,2818,2576
ST-1308,1308,1308. 안암로터리 버스정류장 앞,성북구,서울특별시 서초구 남부순환로 2311-12 방배래미안아트힐 101동앞,37.477203,127.005836,2902.6,14513,15765,2924,2735,3312,2736,2806
ST-308,308,308. 광화문 S타워 앞,종로구,서울특별시 양천구 목동 559 KB국민은행 염창역 지점 앞,37.546848,126.872772,2890.2,14451,13082,3209,2840,3098,2777,2527
ST-1012,1012,1012. 천호역효성해링턴타워 앞,강동구,서울특별시 양천구 신월동 258 화곡로 입구 교차로,37.53952,126.825401,2883.4,14417,14394,2825,3071,3283,2613,2625
ST-648,648,648. 장안동위더스빌옆,동대문구,서울특별시 강북구 솔샘로 284 송천동 주민센터,37.618286,127.024048,2871.8,14359,14400,3038,2917,3022,2753,2629
ST-117,117,117. 홍은사거리,서대문구,서울특별시 종로구 사직로 지하130 경복궁역 7번출구 앞,37.575794,126.971451,2853.2,14266,14424,2481,2888,3562,2974,2361
ST-1986,1986,1986. 태평양물산,구로구,서울특별시 영등포구 당산동 121-317 ,37.529743,126.907829,2844.2,14221,15718,3105,2825,3045,2669,2577
ST-1662,1662,1662. 노원역7번출구,노원구,서울특별시 광진구 용마산로 63 중곡사거리(국민은행),37.559158,127.087517,2843,14215,14925,2813,2760,3118,2952,2572
ST-2707,2707,2707.한강아파트,강서구,서울특별시 노원구 서울 노원구 상계로 305 ,37.670303,127.078842,2840.2,14201,12758,2870,2889,3219,2706,2517
ST-2176,2176,2176. 보라매공원 보도육교,관악구,서울특별시 용산구 삼개로 60 천년명가 청암자이 ,37.534527,126.947182,2833.8,14169,15519,1808,2560,3794,3233,2774
ST-870,870,870.노들섬 서측 앞,용산구,서울특별시 구로구 경인로40길 47 구로구 개봉동 202-42,37.494282,126.859215,2831.2,14156,14313,1800,3053,3891,3615,1797
ST-589,589,589. 성수역3번출구,성동구,서울특별시 중랑구 용마산로86길 9-27 용마문화복지센터,37.58746,127.09597,2820.2,14101,14209,2904,2764,3160,2736,2537
ST-1251,1251,1251. 석촌역 2번출구,송파구,서울특별시 강서구 양천로 지하 341 양천향교역 7번출구 앞,37.56768,126.840897,2818.6,14093,14177,2840,2921,3135,2760,2437
ST-2615,2615,2615. 테라타워2,송파구,서울특별시 관악구 봉천동 269-4 ,37.471855,126.958717,2817.8,14089,14076,3000,2717,3206,2661,2505
ST-3410,3410,3410.종로3가역 8번출구,종로구,서울특별시 서대문구 응암로 131 ,37.584171,126.914291,2814,14070,14168,3096,2753,3148,2543,2530
ST-303,303,303. 광화문역 1번출구 앞,종로구,서울특별시 영등포구 신길동373-1 도림4거리,37.506573,126.901131,2801.4,14007,13329,3034,2798,3143,2526,2506
ST-735,735,735. 영도초등학교,양천구,서울특별시 노원구 동일로 지하 1074 노원구 공릉동 385-4,37.626614,127.072754,2792.2,13961,14961,2687,2864,3054,2707,2649
ST-1914,1914,1914. 대림역4번출구,구로구,서울특별시 서초구 방배로 194-2 구두수선대 ,37.489918,126.992081,2783.8,13919,13793,2824,2761,3193,2597,2544
ST-1655,1655,1655. 공릉1단지아파트,노원구,서울특별시 서초구 반포동 128-13 ,37.498363,126.99115,2771.2,13856,13956,2824,2757,3077,2709,2489
ST-1193,1193,1193. 마곡센트럴타워 1차,강서구,서울특별시 광진구 화양동 21-6 화양사거리,37.548222,127.067879,2766.4,13832,14161,2891,2764,2925,2592,2660
ST-2742,2742,2742.강서구민올림픽체육센터,강서구,서울특별시 강동구 양재대로 1377 삼원빌딩 ,37.529236,127.136475,2749.8,13749,14604,3090,2841,3063,2394,2361
ST-206,206,206. KBS 앞,영등포구,서울특별시 마포구 용강동 234-1 용강동 주민센터 앞,37.542347,126.943024,2748.4,13742,13337,2499,2388,3307,3014,2534
ST-183,183,183. 하늘채코오롱아파트 건너편,마포구,서울특별시 종로구 사직로 8 에이트 타워 ,37.572105,126.960953,2748,13740,13140,2683,2979,2987,2620,2471
ST-3413,3413,3413.종로플레이스,종로구,서울특별시 중구 퇴계로 33 서울로7017편의시설 ,37.557095,126.971832,2742.6,13713,14553,2941,2707,2938,2471,2656
ST-2109,2109,2109. 은천로입구 가로공원,관악구,서울특별시 도봉구 도봉로 492 ,37.649296,127.0354,2742.4,13712,13914,2891,2973,2954,2458,2436
ST-305,305,305. 종로구청 옆,종로구,서울특별시 영등포구 신길동95-256 신길삼거리(우리은행),37.513844,126.919357,2734.6,13673,13163,2699,2491,3275,2776,2432
ST-771,771,771.목동아파트 703동 앞,양천구,서울특별시 서초구 태봉로2길 24 우면동 718,37.462639,127.026619,2727.2,13636,14147,2872,2925,3013,2389,2437
ST-1946,1946,1946. 구로역 광장,구로구,서울특별시 구로구 항동 75-2 ,37.482597,126.826454,2727.2,13636,13832,2734,2586,3108,2533,2675
ST-514,514,514. 성수사거리 버스정류장 앞,성동구,서울특별시 강서구 마곡동 221-4 ,37.573124,126.822388,2718.4,13592,13841,2836,2614,3060,2631,2451
ST-747,747,747. 목동3단지 상가,양천구,서울특별시 서초구 신반포로 지하 188 서초구 반포동 117-4,37.502232,127.002258,2712.8,13564,13570,2885,2878,2934,2376,2491
ST-1663,1663,1663. 동해문화예술관앞,노원구,서울특별시 광진구 뚝섬로 639 중앙농협(자양동),37.531811,127.080742,2711,13555,13660,2332,2309,3543,2665,2706
ST-1162,1162,1162. 공항초등학교건너편,강서구,서울특별시 관악구 신원동 266 서초포레스타 7단지,37.448967,127.057739,2709.2,13546,13397,2860,2773,2830,2460,2623
ST-2718,2718,2718.마곡수명산파크1단지,강서구,서울특별시 노원구 덕릉로70길 99 SH공사 집단에너지사업단(동부지사)외 2 ,37.639851,127.05999,2708.4,13542,11849,2768,2651,3032,2508,2583
ST-1111,1111,1111. 마곡엠밸리6_7단지 마곡중학교,강서구,서울특별시 노원구 공릉동 687-6 태릉입구역 8번출구,37.617367,127.075211,2676,13380,12086,2579,2718,3065,2562,2456
ST-2632,2632,2632.석촌고분역 2번 출구,송파구,서울특별시 중랑구 봉화산로 190 ,37.606411,127.094048,2672.2,13361,13809,2778,2669,2987,2450,2477
ST-231,231,231. 남부고용노동지청 남측,영등포구,서울특별시 서대문구 모래내로 286 홍은2공중화장실 ,37.578068,126.930885,2671.8,13359,13463,2806,2697,2920,2409,2527
ST-1617,1617,1617. 하계동 중평어린이공원 앞,노원구,서울특별시 성동구 난계로 20 논골사거리(금호도서관 입구),37.554779,127.024841,2668.6,13343,15283,2713,2554,3086,2544,2446
ST-1218,1218,1218. 방이역 4번출구,송파구,서울특별시 구로구 신도림로 67 도야미리숯불갈비 앞,37.51001,126.88205,2665.2,13326,13257,2622,2670,3021,2561,2452
ST-419,419,419. 홈플러스 마포점 앞,마포구,서울특별시 영등포구 영등포로 124 영등포유통상가 사거리,37.521133,126.896538,2660,13300,11857,2498,2721,2996,2754,2331
ST-2611,2611,2611. 송파지역자활센터 뒤,송파구,서울특별시 강서구 초원로16길 3-9 안성빌라 ,37.567406,126.816216,2656.2,13281,14331,2936,2706,2780,2413,2446
ST-3002,3002,3002.벽산상암스마트큐브 ,마포구,서울특별시 성동구 서울 성동구 성수일로 10. 서울숲 itct 지식산업센터 앞 ,37.541275,127.048492,2650.6,13253,13359,2676,2931,3147,2542,1957
ST-1077,1077,1077.강동역 1번출구 앞,강동구,서울특별시 송파구 가락동 195-4 가락미륭아파트 앞,37.493198,127.128998,2647.4,13237,12580,2843,2645,3055,2410,2284
ST-2635,2635,2635.잠실새내역 1번출구,송파구,서울특별시 중랑구 묵동 170-45 ,37.613216,127.077347,2645.4,13227,12568,2511,2534,2881,2802,2499
ST-1208,1208,1208. 풍납현대아파트쉼터,송파구,서울특별시 성북구 아리랑로 82 아리랑시네센터 앞,37.600288,127.013702,2645,13225,13206,2881,2680,2868,2465,2331
ST-1569,1569,1569.수유역2번출구,강북구,서울특별시 강남구 일원로14길 25 대모산입구 교차로 (푸른마을아파트 입구),37.482849,127.080162,2644,13220,13961,2788,2783,2911,2420,2318
ST-1451,1451,1451. 중랑세무서,중랑구,서울특별시 중랑구 용마산로115길 127 용마산로115길 127,37.59734,127.093086,2641.2,13206,14599,2405,2543,3400,2691,2167
ST-704,704,704. 남부법원검찰청 교차로,양천구,서울특별시 관악구 난곡로 295 관악구 신림동 1475-64,37.480251,126.914604,2641,13205,13038,2748,2690,3009,2494,2264
ST-1013,1013,1013. 강동구청역 1번 출입구,강동구,서울특별시 양천구 등촌로 236 등촌역 5번 출구 뒤,37.550732,126.864578,2640.4,13202,13036,2952,2571,2957,2344,2378
ST-1220,1220,1220. 잠실근린공원,송파구,서울특별시 구로구 가마산로 272 강서수도사업소민원센터,37.495781,126.890121,2639.4,13197,14495,2727,2695,2927,2484,2364
ST-2745,2745,2745.수명초등학교,강서구,서울특별시 강동구 강일동 80번지 일대 ,37.571804,127.174469,2629,13145,12075,2503,2635,2931,2450,2626
ST-2601,2601,2601. 석촌호수 아뜰리에,송파구,서울특별시 송파구 올림픽로 435 ,37.519211,127.107941,2627.4,13137,13043,2806,2770,2874,2599,2088
ST-293,293,293. 충북 미래관,영등포구,서울특별시 영등포구 영등포동8가 82-4 영등포삼환아파트 앞,37.530079,126.905708,2625.4,13127,11675,2624,2695,3021,2501,2286
ST-284,284,284. 센트럴 푸르지오 시티 앞,영등포구,서울특별시 영등포구 신길동 250-4 신길동 우리은행 옆,37.504566,126.910233,2621.8,13109,11474,2461,2602,2987,2657,2402
ST-512,512,512. 뚝섬역 1번 출구 옆,성동구,서울특별시 강서구 마곡중앙5로 58 강서구 마곡동 743-3,37.566982,126.8218,2612.6,13063,13052,2822,2523,2828,2646,2244
ST-302,302,302. 경복궁역 6번출구 뒤,종로구,서울특별시 영등포구 신길동263-76 도림신협 앞,37.503803,126.903419,2611.2,13056,12575,2666,2492,2797,2569,2532
ST-238,238,238. 제2구민체육센타 앞,영등포구,서울특별시 성동구 금호동3가 1575-3 금호역 1번출구 앞,37.548641,127.016426,2608.6,13043,12985,3318,3031,2439,2098,2157
ST-1851,1851,1851. 가산디지털단지 9번출구 인근,금천구,서울특별시 송파구 백제고분로37길 16 석촌동주민센터 ,37.503624,127.103554,2597.2,12986,12818,3232,2999,2889,1964,1902
ST-213,213,213. KT앞,영등포구,서울특별시 마포구 공덕동 105-259 ,37.549332,126.954918,2588.2,12941,11025,2442,2480,3145,2711,2163
ST-1102,1102,1102. 방화사거리 마을버스 버스정류장,강서구,서울특별시 강북구 미아동 813-8 삼각산동 주민센터,37.615036,127.020699,2587.8,12939,14293,2693,2702,2877,2445,2222
ST-1669,1669,1669. 중계역 3번출구,노원구,서울특별시 중구 퇴계로90길 74 신당 레미안 버스정류장 (112동 인근),37.561489,127.023933,2574.6,12873,13012,2740,2671,2850,2347,2265
ST-568,568,568. 청계8가 사거리 B,성동구,서울특별시 중랑구 망우로55길 11-10 망우역 1번출구,37.599098,127.092949,2570.8,12854,13400,2544,2635,2885,2580,2210
ST-612,612,612. 시립동부병원 앞 사거리,동대문구,서울특별시 노원구 동일로 1701 노원구 상계동 1263,37.680313,127.055069,2569.8,12849,13696,2567,2453,3064,2505,2260
ST-1018,1018,1018. 둔촌 주공 GS 맞은편,강동구,서울특별시 양천구 목동 903-6 목동3단지 상가,37.53458,126.875649,2558,12790,13168,2177,2439,3035,2691,2448
ST-2173,2173,2173. 당곡사거리,관악구,서울특별시 용산구 한강대로 205 용산파크자이 ,37.536079,126.973419,2557,12785,12855,2558,2657,2911,2469,2190
ST-1198,1198,1198. LG 사이언스파크,강서구,서울특별시 성동구 상왕십리동 350-1 왕십리교회옆,37.566261,127.023697,2557,12785,12701,2579,2283,3136,2486,2301
ST-614,614,614. 용두동 사거리,동대문구,서울특별시 도봉구 마들로 656 방학동 720,37.669224,127.046516,2550.6,12753,12882,2596,2501,2891,2398,2367
ST-268,268,268. 그랜드컨벤션센터 앞,영등포구,서울특별시 동대문구 전농로 192 전농삼성아파트,37.58131,127.055344,2546,12730,12714,2714,2816,2709,2295,2196
ST-2217,2217,2217.아크로리버뷰 부지 앞,서초구,서울특별시 서대문구 홍제동 295-33 ,37.591862,126.944214,2538.6,12693,14822,2516,2846,3070,2548,1713
ST-796,796,796.목동아파트 14단지 B상가 앞,양천구,서울특별시 강남구 도산대로 520-2 ,37.525055,127.052528,2533.8,12669,12628,2469,2465,2647,2596,2492
ST-2727,2727,2727.서울식물원 잔디마당 앞,강서구,서울특별시 도봉구 도봉구 우이천로4길 24-5 ,37.633427,127.041161,2528.2,12641,12721,2643,2268,3057,2364,2309
ST-1262,1262,1262. 송파여성문화회관 앞,송파구,서울특별시 관악구 남부순환로 1944 낙성대역 1번출구,37.476295,126.964958,2513.8,12569,12563,2634,2728,2747,2350,2110
ST-1455,1455,1455. 상봉역 2번 출구,중랑구,서울특별시 성북구 보문로22길 28 보문4교 인근,37.583752,127.02195,2502.8,12514,13082,2592,2658,2800,2291,2173
ST-1243,1243,1243. 문정 법조단지7,송파구,서울특별시 구로구 천왕로 10 천왕이펜하우스5단지 앞,37.479431,126.842697,2500.8,12504,12772,2529,2366,2871,2471,2267
ST-630,630,630. 동대문구 보건소,동대문구,서울특별시 금천구 시흥대로 217 시흥동 1000-71,37.452991,126.900909,2492.6,12463,12937,2726,2449,2636,2400,2252
ST-786,786,786.목동아파트 8단지 상가동 앞,양천구,서울특별시 강남구 학동로 지하 508 학동로 래미안 아파트 앞,37.517773,127.043022,2492.4,12462,12555,2513,2630,2673,2300,2346
ST-2921,2921,2921.중계역 2번출구,노원구,서울특별시 중랑구 중랑구 망우로 325(상봉동) ,37.597809,127.088448,2478.2,12391,13190,2543,2568,2738,2336,2206
ST-2732,2732,2732.마곡수명산 1-2단지 ,강서구,서울특별시 강동구 구천면로 192 천호역 한강 푸르지오시티 ,37.540741,127.125763,2475.6,12378,10263,2589,2447,2755,2337,2250
ST-154,154,154. 마포구청역 ,마포구,서울특별시 종로구 창경궁로 109 세운스퀘어 앞,37.570957,126.997124,2470.2,12351,14347,2505,2509,2839,2383,2115
ST-184,184,184.망원우체국사거리 인근,마포구,서울특별시 중구 세종대로 110 서울시청 광장,37.484215,126.996292,2466,12330,13930,2476,2512,2817,2408,2117
ST-1964,1964,1964. 원메디타운 앞,구로구,서울특별시 구로구 경인로 673-1 가로판매대 ,37.510063,126.889565,2465,12325,12418,2425,2298,3017,2348,2237
ST-2915,2915,2915.서울과학기술대학교(어학교육원),노원구,서울특별시 송파구 송파구 오금동 166 ,37.498272,127.134865,2464.2,12321,8686,2053,1855,3267,2636,2510
ST-543,543,543. 구의공원(테크노마트 앞),광진구,서울특별시 송파구 오금동 6-2 ,37.50832,127.133217,2462,12310,13260,2616,2573,2468,2356,2297
ST-1688,1688,1688. 마들역 7번출구,노원구,서울특별시 강서구 공항대로 227 마곡센트럴타워 1차,37.559471,126.832077,2458.8,12294,12304,2545,2618,2719,2238,2174
ST-291,291,291. 문래동 하이테크 시티,영등포구,서울특별시 영등포구 신길동 215-28 신길선원가와인아파트 앞,37.510933,126.910225,2448.6,12243,12167,2353,2331,2761,2349,2449
ST-548,548,548. 자양나들목,광진구,서울특별시 송파구 올림픽로 74 송파구 잠실동 20,37.512169,127.078934,2443.4,12217,12178,2491,2528,2729,2393,2076
ST-219,219,219. 롯데캐슬엠파이어 옆,영등포구,서울특별시 서대문구 대신동 143-1 ,37.566261,126.946671,2440.6,12203,12212,2469,2308,2805,2320,2301
ST-2525,2525,2525.반포쇼핑타운 2동 앞,서초구,서울특별시 중구 저동2가 22-1 ,37.56459,126.990768,2435.2,12176,14552,2144,2430,3119,2694,1789
ST-1449,1449,1449. 상봉역 1번출구,중랑구,서울특별시 동대문구 사가정로 65 전농동 텃골공원,37.577621,127.052109,2435,12175,12392,2316,2364,2781,2373,2341
ST-573,573,573. 구의문주차장 앞,광진구,서울특별시 중랑구 용마산로 285 581 번지,37.577782,127.090187,2430.4,12152,11961,2103,2157,2963,2464,2465
ST-1140,1140,1140. 목동사거리 버스정류장,강서구,서울특별시 금천구 가산동 60-35 ,37.477436,126.886154,2427,12135,12074,2411,2357,2808,2273,2286
ST-906,906,906. 연신내역 5번출구,은평구,서울특별시 송파구 송파대로 지하 82 장지동 201-5,37.477509,127.126328,2412.2,12061,13149,2455,2616,2696,2374,1920
ST-1248,1248,1248. 방이초등학교,송파구,서울특별시 강남구 헌릉로569길 39-6 보금자리정원,37.466328,127.094887,2407,12035,10177,2414,2331,2717,2372,2201
ST-103,103,103. 망원역 2번출구 앞,마포구,서울특별시 성동구 광나루로 249 송정금호어울림 아파트 앞,37.549061,127.057793,2403.8,12019,13471,2445,2514,2853,2386,1821
ST-1452,1452,1452. 겸재교 진입부,중랑구,서울특별시 중랑구 사가정로72길 26 한양수자인사가정파크 ,37.579845,127.092766,2403,12015,13773,2331,2631,2834,2542,1677
ST-1328,1328,1328. 월곡역 3번출구,성북구,서울특별시 용산구 이태원로 134 이태원관광특구입구,37.534279,126.988564,2394.4,11972,13373,2377,2490,2772,2225,2108
ST-2730,2730,2730.마곡메가박스 앞,강서구,서울특별시 도봉구 방학동 606-5 ,37.669273,127.032433,2363.4,11817,11913,2413,2470,2430,2239,2265
ST-560,560,560. 비전교회 앞,성동구,서울특별시 성북구 보국문로29길 23 성북구 정릉동 966-1,37.607761,127.003281,2354.4,11772,11863,2451,2395,2571,2180,2175
ST-2264,2264,2264. 이수역 1번출구,서초구,서울특별시 은평구 연서로 9 센타폴리스 ,37.599968,126.915726,2352.2,11761,12860,2292,2385,2750,2295,2039
ST-1656,1656,1656. 중앙하이츠 아파트 입구,노원구,서울특별시 송파구 송파대로 6 복정역 ,37.471954,127.127098,2350.6,11753,11422,2376,2462,2617,2061,2237
ST-279,279,279. 영등포 푸르지오 아파트 B,영등포구,서울특별시 영등포구 양평동4가 20-4 양평1 보행육교 앞,37.535873,126.892181,2348.8,11744,9806,2261,2400,2586,2212,2285
ST-1447,1447,1447. 면목역 3번출구,중랑구,서울특별시 동대문구 사가정로 190 답십리 래미안엘파인아파트 입구,37.57653,127.065941,2345.6,11728,13640,2479,2438,2622,2176,2013
ST-1955,1955,1955. 디지털입구 교차로,구로구,서울특별시 구로구 부광로 96-16 항동 제일풍경채 포레스트 ,37.476036,126.816589,2341.2,11706,11681,2383,2420,2645,2207,2051
ST-1120,1120,1120. 대림경동아파트앞,강서구,서울특별시 노원구 상계동 1263 파르코 앞,37.68,127.05558,2339.4,11697,11307,2626,2413,2516,2177,1965
ST-1235,1235,1235. 잠실트리지움310동 옆,송파구,서울특별시 구로구 오리로 1181 오리로와 서해안도로 교차로 앞,37.488598,126.836494,2331,11655,12339,2389,2351,2666,2173,2076
ST-592,592,592. 건국대학교 학생회관,광진구,서울특별시 중랑구 사가정로 332 홈플러스 면목동점,37.579868,127.082367,2330.4,11652,13269,1899,1659,3280,2248,2566
ST-497,497,497.합정동주민센터 앞,마포구,서울특별시 강동구 올림픽로 552 ,37.530716,127.120987,2327.8,11639,8244,2152,2417,2699,2300,2071
ST-2340,2340,2340. 삼호물산버스정류장(23370) 옆,강남구,서울특별시 성동구 마장동 336-11 ,37.563396,127.04187,2322.4,11612,12952,2192,2274,2653,2315,2178
ST-1912,1912,1912. 한신휴아파트 앞,구로구,서울특별시 서초구 반포동 12 ,37.50296,126.993599,2320.6,11603,11458,2384,2443,2568,2204,2004
ST-825,825,825. 서빙고동 주민센터 앞,용산구,서울특별시 성북구 동소문로 1 한성대입구역6번출구 뒤,37.588764,127.00631,2316,11580,13199,2134,2548,2920,2370,1608
ST-1226,1226,1226. 잠실4동 주민센터 옆,송파구,서울특별시 구로구 경인로 403 원메디타운 앞,37.49789,126.864502,2312.6,11563,11738,2369,2311,2531,2209,2143
ST-754,754,754. 목동1단지아파트 118동 앞,양천구,서울특별시 서초구 남부순환로 2183 서초구 방배동 2577,37.47261,126.983009,2306,11530,11520,2366,2543,2423,2075,2123
ST-914,914,914. 새절역 2번출구,은평구,서울특별시 노원구 상계로 182 노원구 상계동 173-19,37.66,127.072968,2304.4,11522,13574,2138,2224,2863,2377,1920
ST-768,768,768.목동5단지아파트 501동,양천구,서울특별시 서초구 강남대로 193 서초구 양재동 105-4,37.481491,127.036728,2299,11495,11459,2156,2357,2400,2278,2304
ST-203,203,203. 국회의사당역 3번출구 옆,영등포구,서울특별시 마포구 공덕동 237-9 공덕역 5번출구,37.54425,126.951637,2291.8,11459,11313,2433,2123,2635,2175,2093
ST-1904,1904,1904. 도림천역 1번 출구 앞,구로구,서울특별시 서초구 서초동 1418 ,37.491009,127.023521,2284,11420,11212,2197,2293,2732,2095,2103
ST-186,186,186. 월드컵공원,마포구,서울특별시 중구 동호로 지하256 동대입구역 6번출구 뒤,37.558872,127.005539,2270.6,11353,10985,1509,1853,2645,3159,2187
ST-1023,1023,1023. 한국종합기술사옥 앞,강동구,서울특별시 은평구 진관동 30-23 상림마을 롯데캐슬2단지 옆,37.645851,126.923798,2268.6,11343,11802,2453,2199,2746,2053,1892
ST-287,287,287. 영등포전화국사거리 (서강어린이공원),영등포구,서울특별시 영등포구 당산동4가 96-2 제2구민체육센타 앞,37.526386,126.902756,2265.4,11327,11166,2381,2443,2376,2080,2047
ST-574,574,574. 아차산역4번출구,광진구,서울특별시 성북구 화랑로 지하 157 성북구 상월곡동 26-1,37.607342,127.050682,2260.4,11302,7063,2379,2328,2406,2034,2155
ST-3205,3205,3205.문래현대2차,영등포구,서울특별시 성동구 성수동1가 694-71 ,37.542557,127.044235,2258.2,11291,11447,2182,2300,2632,2136,2041
ST-615,615,615. 용두동 래미안허브리츠아파트 앞,동대문구,서울특별시 도봉구 도봉로 552 창동 723-11,37.654461,127.038513,2249,11245,12094,2044,2083,2666,2339,2113
ST-540,540,540. 군자역 7번출구 베스트샵 앞,광진구,서울특별시 송파구 올림픽로 지하 23 송파구 잠실동 53-4,37.51128,127.078239,2248,11240,11223,2319,2223,2500,2146,2052
ST-498,498,498.연남동주민센터 앞,마포구,서울특별시 강동구 구천면로 395 명일동공영주차장 ,37.5508,127.142952,2242.4,11212,12071,2292,2406,2493,2090,1931
ST-1197,1197,1197. 엠펠리체 호텔 건너편,강서구,서울특별시 성동구 하왕십리동 860-1 상왕십리역 1번출구,37.56461,127.029198,2237.2,11186,11209,2433,2357,2496,2091,1809
ST-500,500,500. 어린이대공원역 3번출구 앞,광진구,서울특별시 강동구 강일동 706 ,37.559399,127.171181,2220.8,11104,10316,2297,2193,2398,2019,2197
ST-1957,1957,1957. 구일고등학교 정문 ,구로구,서울특별시 구로구 천왕동 277-4 ,37.479897,126.84037,2197.4,10987,11405,2409,2178,2264,2035,2101
ST-1169,1169,1169. 염창역 1번 출구,강서구,서울특별시 서초구 잠원동 86 ,37.514839,127.015602,2191,10955,11590,2310,2208,2456,2032,1949
ST-1135,1135,1135. 강서구의회,강서구,서울특별시 도봉구 도봉로 771 신도봉사거리 버스정류장,37.673283,127.043991,2187.8,10939,9876,2445,2255,2418,2000,1821
ST-267,267,267. 삼성화재 사옥 옆,영등포구,서울특별시 동대문구 이문동186-1 신이문역 2번출구,37.602711,127.067863,2187.4,10937,10234,2280,2144,2576,2079,1858
ST-418,418,418. 월드컵경기장역 3번출구 옆,마포구,서울특별시 영등포구 영등포로 96 교보생명보험 앞,37.521931,126.891617,2184.2,10921,10477,2046,2160,2836,2326,1553
ST-226,226,226. 샛강역 1번출구 앞,영등포구,서울특별시 서대문구 북가좌동 400 북가좌 삼거리,37.573002,126.907799,2181.2,10906,9856,2281,2063,2478,2169,1915
ST-474,474,474.동대문역사문화공원역 1번출구 뒤편,중구,서울특별시 은평구 불광동 276-6 불광역 8번출구,37.611179,126.929665,2177.6,10888,9284,2208,2217,2597,2138,1728
ST-1448,1448,1448. 코스트코 상봉점,중랑구,서울특별시 동대문구 신이문로 3 이문동 삼거리,37.603088,127.062202,2169.8,10849,11072,2159,2293,2394,2129,1874
ST-1048,1048,1048. 둔촌어린이공원,강동구,서울특별시 강동구 암사동 440 ,37.556042,127.130936,2166.4,10832,11613,2416,2225,2376,1968,1847
ST-362,362,362. 청계8가사거리 A,종로구,서울특별시 성동구 왕십리로 64 서울숲역 2번출구 앞,37.542816,127.04467,2165.4,10827,11169,2223,2032,2450,2067,2055
ST-1002,1002,1002. 해공공원(천호동),강동구,서울특별시 양천구 목동동로 316-6 서울시 도로환경관리센터,37.5299,126.876541,2158.2,10791,11064,2143,2257,2436,2239,1716
ST-501,501,501. 광진문화예술회관 앞,광진구,서울특별시 강동구 길동 252-91 ,37.535446,127.145187,2157.6,10788,9150,2258,2319,2361,1935,1915
ST-153,153,153. 성산2교 사거리,마포구,서울특별시 종로구 창경궁로 185 창경궁 입구,37.578979,126.996475,2154.6,10773,10871,2172,2282,2451,2012,1856
ST-224,224,224. 롯데캐슬 앞,영등포구,서울특별시 서대문구 북가좌동 70-119 연가초등학교 옆,37.57946,126.91713,2147.8,10739,10783,2138,2056,2373,2157,2015
ST-576,576,576. 광나루역 3번 출구,광진구,서울특별시 성북구 한천로95길 7 성북구 장위동 270-465,37.61776,127.055969,2147,10735,11071,2051,2161,2383,2118,2022
ST-244,244,244. 영등포삼환아파트 앞,영등포구,서울특별시 성동구 하왕십리동 286-24 청계벽산아파트 텐즈힐아파트 정류소,37.568748,127.030403,2141.8,10709,9888,2083,2210,2343,2051,2022
ST-905,905,905. 구파발역 2번출구,은평구,서울특별시 송파구 법원로 101 문정동 619,37.479465,127.125328,2139.4,10697,12085,2131,2311,2316,2055,1884
ST-1503,1503,1503. 강북구청사거리(수유역 8번출구),강북구,서울특별시 양천구 신목로 126 ,37.524742,126.877663,2139.4,10697,11123,2214,2251,2257,2027,1948
ST-3214,3214,3214.영등포 푸르지오 아파트 A,영등포구,서울특별시 송파구 오금로 113 석촌씨티빌딩 ,37.512375,127.108223,2138,10690,9198,2181,2199,2251,1964,2095
ST-956,956,956. 응암시장교차로,은평구,서울특별시 강남구 도곡로 205 도곡1동 주민센터 교차로,37.492809,127.041389,2137,10685,13060,1983,2071,2429,2215,1987
ST-1132,1132,1132. 등촌역 7번출구,강서구,서울특별시 도봉구 마들로11길 20 하나로마트 창동점,37.654202,127.050728,2134.4,10672,11412,2091,2074,2552,2016,1939
ST-433,433,433. 을지로입구역 2번출구,중구,서울특별시 양천구 가로공원로 145 신월보건센터 부근,37.536671,126.832184,2131,10655,9358,2045,2056,2322,2153,2079
ST-1961,1961,1961. 신도림테크노근린공원,구로구,서울특별시 구로구 중앙로6길 5-15 청구아파트 ,37.50119,126.863533,2128,8512,8575,2212,2138,2302,1860,0
ST-551,551,551. 구의삼성쉐르빌 앞,광진구,서울특별시 송파구 석촌호수로12길 3-17 송파구 잠실동 38,37.510509,127.093369,2124,10620,10670,2119,2272,2349,2010,1870
ST-342,342,342. 대학로 마로니에공원,종로구,서울특별시 마포구 월드컵로 119 SK망원동주유소 건너편,37.558949,126.907753,2123.6,10618,10442,2113,2098,2357,2060,1990
ST-146,146,146. 마포역 2번출구 뒤,마포구,서울특별시 중구 남대문로10길 33 삼각동 118,37.568165,126.984978,2123.4,10617,11605,1924,2095,2733,2043,1822
ST-2913,2913,2913.상계8동 주민센터,노원구,서울특별시 금천구 독산로 179 독산2동주민센터 ,37.463223,126.903572,2117.6,10588,11029,2021,2251,2381,2092,1843
ST-1744,1744,1744.도봉소방서 옆,도봉구,서울특별시 서초구 양재대로12길 18 트럭터미널앞 삼거리,37.46032,127.036301,2116.4,10582,10895,2187,2219,2247,2060,1869
ST-1195,1195,1195. 코오롱One&Only타워,강서구,서울특별시 성동구 고산자로 123 응봉동 3-10,37.55125,127.035103,2109.8,10549,11444,2167,1948,2449,1986,1999
ST-2702,2702,2702. 마곡 엠밸리2단지,강서구,서울특별시 노원구 서울 노원구 한글비석로 68 ,37.636669,127.069695,2106.2,10531,10545,2134,1923,2467,2060,1947
ST-1168,1168,1168. 마곡엠밸리10단지 앞,강서구,서울특별시 서초구 양재동 261-20 ,37.473877,127.039032,2104.6,10523,9613,2219,2140,2207,1931,2026
ST-227,227,227. 양평1나들목 보행통로 입구,영등포구,서울특별시 서대문구 남가좌동 124 가재울 뉴타운 주유소 옆,37.573112,126.922447,2101,10505,10951,1993,2326,2621,2056,1509
ST-1686,1686,1686. 상계주공10단지 종합상가 앞,노원구,서울특별시 강동구 올림픽로 875 서울 암사동 유적 ,37.563793,127.132835,2100.2,10501,10193,2146,2175,2324,1997,1859
ST-2741,2741,2741.마곡수명산파크5-6단지,강서구,서울특별시 강동구 풍성로 203 ,37.529449,127.134354,2100,10500,7931,2263,2074,2259,1921,1983
ST-1610,1610,1610. 화랑대역 2번출구 앞,노원구,서울특별시 종로구 율곡로 지하 308 종로?시장 입구 옆,37.57132,127.00721,2099.2,10496,11248,1897,2133,2487,2054,1925
ST-641,641,641. 용두역 4번출구,동대문구,서울특별시 금천구 가산디지털1로 128 가산동 371-37,37.47707,126.88443,2097,10485,11018,1999,1926,2419,2282,1859
ST-642,642,642. 신답역 사거리,동대문구,서울특별시 금천구 시흥대로73길 70 시흥동 1020,37.456478,126.895927,2096.6,10483,10549,2211,2139,2512,1796,1825
ST-229,229,229. 양평1 보행육교 앞,영등포구,서울 영등포구 영등포로34길 3 영등포로,37.519951,126.902451,2095.2,10476,10809,1930,2008,2575,2187,1776
ST-2255,2255,2255. 양재시민의숲역 1번출구,서초구,서울특별시 은평구 연서로 298 ,37.62204,126.92701,2092.8,10464,10525,2121,2074,2475,1926,1868
ST-2177,2177,2177. 신대방역 2번 출구,관악구,서울특별시 용산구 한강대로23길 25 ,37.528416,126.96595,2078.2,8313,9032,5435,2871,0,0,7
ST-1338,1338,1338. 용문2교 옆,성북구,서울특별시 강서구 마곡중앙5로 58 마곡중학교 후문,37.568447,126.821648,2068.4,10342,10566,2115,2049,2363,1965,1850
ST-2050,2050,2050. 노량진역 5번출구,동작구,서울특별시 강서구 마곡중앙1로 71 마곡 13단지 힐스테이트 마스터 ,37.558632,126.819916,2066.4,10332,13334,2074,2113,2392,2058,1695
ST-370,370,370. 시청역(2호선) 9번출구 뒤,중구,서울특별시 성동구 독서당로 381 응봉동현대아파트 정류소,37.549583,127.030243,2062,10310,9248,2200,1900,2335,1939,1936
ST-1531,1531,1531. 미아사거리 1번 출구,강북구,서울특별시 구로구 구일로10길 27 SK허브수 A동,37.495399,126.87101,2060.6,10303,10862,2152,2214,2112,2010,1815
ST-2335,2335,2335. 3호선 매봉역 3번출구앞,강남구,서울특별시 성동구 마장로 302 ,37.565979,127.043114,2059.8,10299,11709,2073,2004,2312,2016,1894
ST-106,106,106. 합정역 7번출구 앞,마포구,서울특별시 성동구 뚝섬로 379 이마트 버스정류소 옆,37.539654,127.052589,2054.4,10272,10104,1641,2001,2781,2172,1677
ST-1996,1996,1996. 구일역 1번 출입구 앞,구로구,서울특별시 양천구 목동 927-10 ,37.525715,126.864868,2053.2,10266,10275,1796,1956,2566,2163,1785
ST-1901,1901,1901. 신도림동주민센터 앞,구로구,서울특별시 서초구 청계산로7길 9-52 공원관리사무소 ,37.454098,127.052444,2050.8,10254,10277,2204,2045,2323,1874,1808
ST-1657,1657,1657. 노원구청 ,노원구,서울특별시 송파구 위례광장로 210 위례동주민센터 ,37.481174,127.143616,2049.4,10247,10347,2117,1910,2248,2035,1937
ST-549,549,549. 아차산역 3번출구,광진구,서울특별시 송파구 양산로 15 송파구 거여동 289-9,37.490688,127.143127,2048.6,10243,9960,2136,2063,2179,1944,1921
ST-1076,1076,1076. 천동초교입구사거리 버스정류장(십자성마을 방면),강동구,서울특별시 송파구 가락동 214-15 가락시장역 롯데마트앞,37.4921,127.117752,2044.8,10224,11045,2050,2162,2194,2059,1759
ST-2630,2630,2630.서울방이동 고분군,송파구,서울특별시 중랑구 망우로 290 ,37.595963,127.084778,2043,10215,9801,2046,2149,2292,1985,1743
ST-633,633,633. 청량리 기업은행 앞,동대문구,서울특별시 금천구 금하로1길 70 독산동 1094 (성민성결교회 앞),37.4547,126.891052,2039.2,10196,10607,2249,2136,2382,1772,1657
ST-1988,1988,1988. 고척LIGA아파트 앞,구로구,서울특별시 영등포구 63로 40 라이프오피스텔 ,37.519875,126.93882,2039,10195,10726,1836,1939,2302,2140,1978
ST-2618,2618,2618. 삼전역 1번출구,송파구,서울특별시 관악구 남부순환로 1880 SK주유소 ,37.478882,126.95842,2038.6,10193,10752,2058,2065,2254,2022,1794
ST-1636,1636,1636. 상계주공2단지 버스정류장 옆,노원구,서울특별시 성북구 인촌로 113 KEB은행 고대점,37.586445,127.031601,2037.6,10188,10061,2181,2203,2260,1859,1685
ST-316,316,316. 종각역 1번출구 앞,종로구,서울특별시 양천구 신정동 760-2 신정3동 현장민원실 앞,37.511585,126.84156,2035.2,10176,9757,2217,1796,2246,1944,1973
ST-505,505,505. 자양사거리 광진아크로텔 앞,광진구,서울특별시 강동구 성내동 379-41 ,37.533779,127.137993,2034.6,10173,9658,2043,1975,2166,1933,2056
ST-2619,2619,2619. 석촌고분역 4번출구,송파구,서울특별시 송파구 거여동 657-12 ,37.486877,127.152695,2032.4,10162,10594,2033,2099,2190,1984,1856
ST-421,421,421. 마포구청 앞,마포구,서울특별시 영등포구 양평로 76 삼성화재 사옥 옆,37.535961,126.8983,2031.8,10159,10136,2031,1935,2475,2002,1716
ST-414,414,414. 상암동주민센터 옆,마포구,서울특별시 영등포구 여의서로 60-2 가로판매대22 ,37.533657,126.912163,2027.6,10138,10950,2151,2127,2256,1813,1791
ST-1291,1291,1291. 서울체육고등학교 앞,송파구,서울특별시 노원구 노해로 450 서울북부고용센터앞,37.653549,127.058083,2027.4,10137,10670,1494,1671,2670,2098,2204
ST-1956,1956,1956. 동아1차APT105동 버스정류장(신도림중학교 방면),구로구,서울특별시 구로구 항동 220 ,37.474731,126.817009,2019.4,10097,10245,1931,1987,2333,1883,1963
ST-398,398,398. 을지로3가역 3번출구,중구,서울특별시 동대문구 천호대로 269 답십리역 1번출구,37.568184,127.051277,2019.4,10097,10062,2058,1963,2237,2016,1823
ST-1643,1643,1643. 태릉입구역 8번출구,노원구,서울특별시 서대문구 홍제천로 111 홍남교 두바퀴쉼터,37.574909,126.926147,2019,10095,10234,1878,1912,2372,2110,1823
ST-393,393,393. 동대문역 8번 출구,종로구,서울특별시 동대문구 전농로 34 답십리초등학교 앞(현대시장 옆),37.568192,127.057175,2018.4,10092,10364,2001,1740,2274,2158,1919
ST-1337,1337,1337. 돈암성당 옆,성북구,서울특별시 관악구 남부순환로 1817 서울대입구역 5번출구,37.481548,126.952003,2011.2,10056,10602,1986,2084,2372,1988,1626
ST-1381,1381,1381.석계역 4번출구 뒤,성북구,서울특별시 중랑구 겸재로 229 동원사거리,37.58976,127.093239,2010.2,10051,10128,1903,1906,2515,2025,1702
ST-634,634,634. 외국어대 정문 앞,동대문구,서울특별시 금천구 한내로 62 독산동 1092 (도로다이어트 사업으로 보도 확장예정),37.456841,126.888344,2006.6,10033,10023,1916,1901,2501,2016,1699
ST-723,723,723. SBS방송국,양천구,서울특별시 관악구 남부순환로 1675 관악구 봉천동 979-9,37.484901,126.936531,1999.2,9996,10359,2006,2064,2265,1901,1760
ST-912,912,912. 응암오거리,은평구,서울특별시 중랑구 면목로 456 중랑구 면목동 282-4,37.592541,127.086739,1999,9995,11991,1920,1939,2361,1983,1792
ST-1442,1442,1442. 중랑구청 중화동 별관 앞,중랑구,서울특별시 용산구 서빙고로 67 용산 파크타워 앞,37.523651,126.970268,1996.6,9983,10606,2528,2607,1279,1710,1859
ST-2746,2746,2746.수명산파크 4단지 411동 앞,강서구,서울특별시 강동구 아리수로87가길 275 강동구음식물재활용센터 ,37.569538,127.1586,1989.2,9946,9615,2098,1998,2223,1824,1803
ST-2729,2729,2729.넥센 유니버시티 앞,강서구,서울특별시 노원구 덕릉로76길 18 원광초등학교 ,37.651535,127.073273,1988,9940,10247,2140,1890,2332,1948,1630
ST-663,663,663. 외대앞역 3번출구,동대문구,서울특별시 구로구 경인로67길 160 구로구 신도림동 323-16,37.51424,126.882874,1977.2,9886,10408,1816,1775,2381,1971,1943
ST-546,546,546. 잠실대교북단 교차로,광진구,서울특별시 송파구 백제고분로15길 7 송파구 잠실동 230,37.505692,127.084038,1973.8,9869,9837,2156,2246,2110,1783,1574
ST-1458,1458,1458. 상봉터미널2,중랑구,서울특별시 성북구 월곡로 74 일신초등학교 옆,37.59972,127.040382,1968,9840,9992,2147,2210,2098,1774,1611
ST-1177,1177,1177. 수명중?고교,강서구,서울특별시 강남구 도곡동 874-1 도곡동 경남아파트 건너편,37.489342,127.041298,1967.8,9839,10253,1824,1723,2374,1987,1931
ST-1185,1185,1185. 등촌9단지,강서구,서울특별시 강남구 수서동 740 수서역 6번출구 앞,37.486778,127.100517,1967,9835,9295,1998,2039,2214,1855,1729
ST-409,409,409. 누리꿈스퀘어 옆,마포구,서울특별시 동대문구 천호대로 231 ,37.570354,127.048431,1965.8,9829,10029,1931,1872,2281,1876,1869
ST-1215,1215,1215. 올림픽공원역 1번출구 앞,송파구,서울특별시 성북구 안암동4가 25-2 ,37.579365,127.024361,1960,9800,9772,2006,1938,2143,1829,1884
ST-1072,1072,1072.고덕역 5번출구,강동구,서울특별시 송파구 가락동 10-15 오금역 3번 출구 뒤,37.501652,127.128181,1958.6,9793,8102,2053,1992,2061,1890,1797
ST-829,829,829. 한강대교 북단 교차로,용산구,서울특별시 강서구 화곡로 지하 168 화곡역 6번출구,37.541412,126.840225,1953.6,9768,9058,1710,2089,2609,2135,1225
ST-1414,1414,1414. 사가정역 2번출구,중랑구,서울특별시 송파구 오금로 363 오금근린공원 ,37.505413,127.131691,1948.2,9741,10460,939,2092,2511,2226,1973
ST-643,643,643. 동대문구민체육센터 (육교아래),동대문구,서울특별시 강북구 도봉로 355 ,37.639263,127.026726,1947.4,9737,11335,1724,1968,2347,1963,1735
ST-1075,1075,1075.천동초교 삼거리,강동구,서울특별시 송파구 문정동 3-2 문정현대아파트 교차로,37.491131,127.125809,1939.8,9699,10027,2150,2082,1992,1718,1757
ST-1269,1269,1269. 리센츠아파트 ,송파구,서울특별시 관악구 신림로 386 삼성디지털프라자관악점,37.488564,126.928482,1937.4,9687,8718,1922,2142,2116,1995,1512
ST-1028,1028,1028. 포레스 주상복합 빌딩,강동구,서울특별시 은평구 진관동 16-4 상림마을 생태공원,37.644081,126.929283,1936.4,9682,9588,2118,2114,2120,1703,1627
ST-913,913,913. 이마트 버스정류장(서부경찰서 방면),은평구,서울특별시 노원구 석계로 98-2 노원구 월계동 412-1,37.622662,127.061897,1936.2,9681,9585,2003,2029,2074,1882,1693
ST-2025,2025,2025. 흑석역 1번출구,동작구,서울특별시 강서구 가양동 1459-11 ,37.564587,126.856918,1933.6,9668,11729,1515,1751,2817,2067,1518
ST-2724,2724,2724.(재)FITI시험연구원,강서구,서울특별시 도봉구 방학동 710 ,37.662521,127.042709,1931.2,9656,8322,2084,1847,2090,1797,1838
ST-1221,1221,1221. 삼전역 4번출구,송파구,서울특별시 구로구 구로동 63-1 ,37.496513,126.889572,1930,9650,10130,1916,1919,2158,1857,1800
ST-588,588,588. 뚝섬 유원지역,광진구,서울특별시 중랑구 송림길 147 양원역 2번출구,37.606312,127.107742,1927.6,9638,9677,1845,1996,2407,1899,1491
ST-473,473,473.을지로4가역 9번출구,중구,서울특별시 은평구 불광동 285-43 불광역 2번출구,37.609566,126.930977,1925,9625,9279,2033,1864,2032,1934,1762
ST-3416,3416,3416.동묘앞역 6번출구,종로구,서울특별시 양천구 목동서로 130 목동신시가지아파트4단지 ,37.532059,126.874504,1923.8,9619,10228,1929,1851,2179,1884,1776
ST-626,626,626. 군자교 서측 녹지대,동대문구,서울특별시 금천구 시흥대로38길 61 시흥동 1001-1,37.446861,126.903831,1923.2,9616,9508,1778,1861,2208,2009,1760
ST-264,264,264. 교보생명보험 앞,영등포구,서울특별시 동대문구 전농로3길 23 답십리초등학교 옆 공원,37.569656,127.055962,1922.4,9612,8346,2057,2005,2066,1690,1794
ST-2801,2801,2801. 대륭포스트타워1차,구로구,서울특별시 영등포구 신길동 4958-1 ,37.504005,126.92028,1921.6,9608,9907,1964,1859,2235,1805,1745
ST-1246,1246,1246. 문정 법조단지10,송파구,서울특별시 강남구 봉은사로 201 언주역 ,37.507809,127.034981,1915.4,9577,9561,1852,2019,2135,1868,1703
ST-593,593,593.자양중앙나들목,광진구,서울특별시 중랑구 용마산로 644 능산삼거리,37.608681,127.100792,1915.4,9577,10151,2024,2209,2039,1879,1426
ST-3421,3421,3421.혜화역 1번출구,종로구,서울특별시 강서구 마곡중앙5로 9 마곡중앙광장 ,37.566147,126.827385,1915,9575,9745,1891,1963,2171,1834,1716
ST-131,131,131. 증산2교,서대문구,서울특별시 종로구 율곡로 33 신한은행 안국역지점 옆,37.57597,126.983063,1910.6,9553,10689,1995,1981,2293,1864,1420
ST-2908,2908,2908. 광운대학교 중앙도서관,노원구,서울특별시 강동구 강동구 강일동 469-9 ,37.557404,127.176537,1906.6,9533,9521,1864,1900,2270,1814,1685
ST-816,816,816. 신용산역 6번출구 앞,용산구,서울특별시 강남구 강남대로 240 양재역 3번출구 주변,37.485157,127.034073,1905.6,9528,9905,1901,2044,2264,1827,1492
ST-222,222,222. 시범아파트버스정류장 옆,영등포구,서울특별시 서대문구 북가좌동 470-1 모래내 우체국,37.575138,126.91394,1903.6,9518,9611,2117,1870,1989,1821,1721
ST-1619,1619,1619. 중계동 하나프라자빌딩 앞(중1-1),노원구,서울특별시 종로구 사직로8길 31 서울지방경찰청,37.574364,126.972366,1902.6,9513,9484,1867,2025,2076,1769,1776
ST-2613,2613,2613. 잠실나들목,송파구,서울특별시 강서구 강서구 공항대로 308 ,37.558029,126.841835,1902.4,9512,9609,1679,2019,2398,2101,1315
ST-1462,1462,1462.동부시장 북문 앞,중랑구,서울특별시 도봉구 도봉산길 10 도봉산역 교차로 앞,37.687592,127.045502,1898,9490,9985,2003,2029,1994,1756,1708
ST-1535,1535,1535. 효성인텔리안 앞,강북구,서울특별시 금천구 남부순환로 1314 가산아네스트 오피스텔 앞,37.47818,126.897408,1891.6,9458,9521,1976,1959,2024,1837,1662
ST-1512,1512,1512. 강북중학교 앞,강북구,서울특별시 강서구 공항대로 453 대한항공 인력개발센터,37.554379,126.857536,1887,9435,9465,2075,2153,2100,1686,1421
ST-1683,1683,1683. 노원문화예술회관,노원구,서울특별시 송파구 석촌호수로 278 여흥레이크빌 ,37.510452,127.106407,1886.8,9434,9424,2032,1937,2000,1770,1695
ST-1438,1438,1438. 홈플러스 신내점 앞,중랑구,서울특별시 중구 다산로 59-1 송도병원,37.549889,127.007347,1882,9410,11256,1947,1869,2165,1802,1627
ST-258,258,258. 신길역3번출구,영등포구,서울특별시 광진구 자양동 738 자양나들목,37.52977,127.07486,1879.2,9396,9462,2082,1964,2084,1671,1595
ST-1697,1697,1697.상계주공2단지 219동,노원구,서울특별시 영등포구 가마산로 352 대림3동사거리,37.499809,126.898003,1874.6,9373,9330,1983,1960,1945,1778,1707
ST-3201,3201,3201.당산skv1센터,영등포구,서울특별시 은평구 진관동 151-10 ,37.628342,126.933815,1865,9325,9725,2041,1902,1985,1697,1700
ST-265,265,265. 영등포유통상가 사거리,영등포구,서울특별시 동대문구 천호대로 26 신설동역9번출구,37.5742,127.026497,1864.6,9323,8697,2334,2164,2104,1412,1309
ST-613,613,613. 신설동역 10번출구 앞,동대문구,서울특별시 도봉구 창동 426-6 ,37.645821,127.050423,1864.2,9321,9902,1923,1876,2001,1725,1796
ST-363,363,363. 신설동역 11번출구 뒤,종로구,서울특별시 성동구 동일로 313 군자지하보도 앞,37.559246,127.07341,1863,9315,9864,1825,1873,2032,1769,1816
ST-1416,1416,1416. 상봉역 3번출구,중랑구,서울특별시 송파구 위례광장로 136 위례별 유치원 뒤,37.47747,127.144592,1857.6,9288,9787,2112,2026,1894,1682,1574
ST-1172,1172,1172. 가양3동 주민센터,강서구,서울특별시 강남구 도산대로 172 ,37.519138,127.027519,1849.2,9246,10211,1942,1907,2103,1735,1559
ST-130,130,130. 신촌역(2호선) 7번출구 앞,마포구,서울특별시 종로구 삼청로 30 국립현대미술관 서울관,37.579708,126.980858,1848.4,9242,9383,1719,1741,2233,1832,1717
ST-1720,1720,1720. 도봉구청 옆(중랑천변),도봉구,서울특별시 송파구 양재대로 지하 1233 올림픽공원역 3번출구,37.516258,127.130592,1846.4,9232,9276,1695,1788,2181,2070,1498
ST-516,516,516. 광진메디칼 앞,광진구,서울특별시 강서구 양천로 지하 560 강서구 등촌동 666-40,37.557461,126.861458,1842,9210,9002,2098,1923,1954,1609,1626
ST-2140,2140,2140. 신림1교 교차로,관악구,서울 도봉구 도봉로 955 ,37.689762,127.044891,1835.4,9177,9280,2075,1957,1989,1724,1432
ST-2274,2274,2274. 양재시민의숲역 3번출구,서초구,서울특별시 성북구 안암동5가 40-11 ,37.586552,127.033142,1830.6,9153,8926,1845,1968,1989,1696,1655
ST-559,559,559. 왕십리역 4번 출구 건너편,성동구,서울특별시 성북구 아리랑로19길 20 성북구 정릉동 966-62,37.60244,127.011688,1825.6,9128,9379,1778,1800,1952,1880,1718
ST-3215,3215,3215.강변삼성래미안,영등포구,서울특별시 양천구 신월동 446-3 ,37.523994,126.842133,1824.6,9123,7863,1853,1894,1988,1794,1594
ST-911,911,911. 은평평화공원(역촌역4번출구),은평구,서울특별시 성북구 월곡로 지하 107 성북구 하월곡동 37-4,37.601841,127.041718,1824.2,9121,8937,1894,2020,2278,1803,1126
ST-2531,2531,2531.멤피스아파트 앞,서초구,서울특별시 마포구 마포구 서교동 445-7 ,37.557308,126.918854,1822.4,9112,9547,1790,1859,2076,1702,1685
ST-1762,1762,1762.북한산 한신휴플러스APT앞,도봉구,서울특별시 강동구 고덕로 131 강동 롯데캐슬퍼스트아파트 강동구 고덕로 131,37.556664,127.142738,1822.2,9111,8656,1935,1913,2007,1606,1650
ST-1321,1321,1321. 국민은행 종암동지점 앞,성북구,서울특별시 영등포구 경인로112길 1 SK영등포주유소,37.518284,126.912636,1819.4,9097,10478,1678,1687,2171,1844,1717
ST-702,702,702. 목4동주민센터 옆,양천구,서울특별시 관악구 신림동 1467-13 ,37.484085,126.926888,1817.8,9089,8913,367,1963,2486,2127,2146
ST-237,237,237. 보라매 두산위브 건너편,동작구,서울특별시 성동구 행당동 188-9 왕십리역 11번 출구 앞,37.561447,127.03492,1817.2,9086,9910,1759,1964,2036,1655,1672
ST-194,194,194. 증산교 앞,서대문구,서울특별시 중구 세종대로 지하2 서울역9번출구,37.556,126.973358,1809.6,9048,9651,1672,1866,2215,1817,1478
ST-1977,1977,1977. 천왕역 1번 출입구 앞,구로구,서울특별시 영등포구 문래동3가 55-13 ,37.517071,126.899086,1809.6,9048,7294,1916,1836,1876,1685,1735
ST-590,590,590. 건국대학교 (입학정보관),광진구,서울특별시 중랑구 면목동 1382-6 ,37.573185,127.086525,1807.8,9039,9128,1537,1373,2451,1878,1800
ST-1958,1958,1958. 강서수도사업소민원센터,구로구,서울특별시 구로구 천왕로 56 천왕 이펜하우스 3단지 ,37.482239,126.838531,1804.6,9023,9875,1890,1880,1898,1752,1603
ST-1446,1446,1446. 중랑전화국 교차로,중랑구,서울특별시 용산구 이촌로14길 7 이촌2동 동원베네스트 아파트 앞,37.527149,126.955162,1803.8,9019,9552,1934,1862,1892,1696,1635
ST-2348,2348,2348. 포스코사거리(기업은행),강남구,서울특별시 동작구 알마타길 6 파밀리에 하늘마루 ,37.510567,126.92485,1803.6,9018,9495,1982,1668,1761,1810,1797
ST-2713,2713,2713.우장초등학교 앞,강서구,서울특별시 노원구 월계동 263-6 ,37.634411,127.058868,1800.2,9001,8876,1944,1782,2032,1625,1618
ST-1121,1121,1121. 가양레포츠센터 앞,강서구,서울특별시 노원구 상계동 335-4 노원역1번출구,37.6562,127.063622,1791,8955,9402,1831,2010,2136,1582,1396
ST-1667,1667,1667. 중계중학교,노원구,서울특별시 동작구 상도로 지하 378 숭실대 입구역3번 출구 앞,37.496601,126.953682,1790.8,8954,8434,1880,1860,1884,1650,1680
ST-368,368,368. SK 서린빌딩 앞,종로구,서울특별시 성동구 아차산로 113 성수역 2번출구 앞,37.54459,127.057083,1789.2,8946,9280,1732,1695,2150,1674,1695
ST-582,582,582. 경일중학교 앞,성동구,서울특별시 성북구 한천로 573 성북구 석관동 124-7,37.611309,127.06266,1785.8,8929,9027,1866,1584,2019,1745,1715
ST-561,561,561. 서울숲역 2번출구 앞,성동구,서울특별시 중랑구 망우로 448 금란주차장 앞,37.600071,127.102333,1782.2,8911,8891,1841,1739,1985,1760,1586
ST-176,176,176. 명지대학교 도서관,서대문구,서울특별시 종로구 숭인동 1499 ,37.572235,127.023178,1780.4,8902,9159,1663,1705,2249,1817,1468
ST-933,933,933. 역촌종합시장 버스정류장(예일여고 방면),은평구,서울특별시 송파구 백제고분로 188 잠실포스코더샵,37.5042,127.087532,1779.4,8897,10382,1751,1786,1935,1791,1634
ST-225,225,225. 앙카라공원 앞,영등포구,서울특별시 서대문구 남가좌동 185-21 남가좌동 시장삼거리,37.566212,126.896179,1776.8,8884,8155,1629,1715,2208,1707,1625
ST-2306,2306,2306. 압구정역 2번 출구 옆,강남구,서울특별시 광진구 뚝섬로36길 69 ,37.531631,127.069771,1776.6,8883,8710,1749,1767,2001,1718,1648
ST-1689,1689,1689. 마들역 3번출구,노원구,서울특별시 강서구 마곡중앙로 76 힐스테이트에코마곡역,37.560242,126.827164,1766.2,8831,8943,1807,1836,1930,1620,1638
ST-1661,1661,1661. 당현천근린공원,노원구,서울특별시 광진구 아차산로 238 ,37.540081,127.069565,1760.8,8804,8588,1798,1585,1945,1705,1771
ST-2731,2731,2731.명덕고교,강서구,서울특별시 성북구 장위동 237-132 ,37.617455,127.048447,1760.6,8803,10410,1759,1631,2120,1633,1660
ST-1933,1933,1933. 개봉푸르지오아파트 상가,구로구,서울특별시 금천구 시흥대로 315 금천롯데캐슬골드파크4차 ,37.461346,126.897583,1759.6,8798,10083,1684,1696,2055,1633,1730
ST-749,749,749. 이대목동병원보도육교,양천구,서울특별시 서초구 나루터로4길 60 서초구 잠원동 78,37.513046,127.005959,1758.4,8792,9202,1571,1643,2049,1832,1697
ST-624,624,624. 전농동 동아아파트 앞,동대문구,서울특별시 금천구 디지털로9길 32 가산동 60-35,37.479031,126.887299,1754.4,8772,9334,1834,1778,1961,1618,1581
ST-1224,1224,1224. 아시아지하보도 2번 출구,송파구,서울특별시 구로구 디지털로26길 5 가리봉동주민센터,37.481602,126.892799,1754.2,8771,8679,1733,1744,2096,1619,1579
ST-2647,2647,2647.잠실 자전거 수리센터 앞,송파구,서울특별시 영등포구 영등포구 의사당대로 1 ,37.532146,126.917473,1753.6,8768,9255,1731,1559,1867,1780,1831
ST-2032,2032,2032. 이수역 11번출구쪽,동작구,서울특별시 강서구 마곡중앙로 201 롯데중앙연구소 ,37.570942,126.828316,1752.6,8763,10821,1831,1762,1990,1653,1527
ST-1201,1201,1201. 가락시장역 3번 출구,송파구,서울특별시 성북구 고려대로7길 120 천주교 돈암동 교회 ,37.590393,127.017166,1752.4,8762,9016,1828,1719,2069,1560,1586
ST-2015,2015,2015. 신대방삼거리역 6번출구쪽,동작구,서울특별시 양천구 신월동 455-5 ,37.527607,126.848755,1742.2,8711,8809,1627,1694,1938,1765,1687
ST-1602,1602,1602. 광운대역 앞,노원구,서울특별시 광진구 아차산로78길 90 광진정보도서관,37.550598,127.110512,1737.2,8686,9049,1738,1733,2099,1635,1481
ST-701,701,701. 목동사거리 부근,양천구,서울특별시 동작구 장승배기로 26 상도동 201-38,37.500881,126.94175,1735.8,8679,8714,1832,1823,1829,1557,1638
ST-1017,1017,1017. 둔촌고교입구 교차로(길동주민센터 방면),강동구,서울특별시 양천구 목동 902-5 목동2단지 상가,37.536503,126.877747,1735.6,8678,8678,2013,1905,1867,1556,1337
ST-2000,2000,2000. 신도림4차 e편한세상 아파트 1109동 앞,구로구,서울특별시 양천구 공항대로 552 목동대우마이빌 ,37.549507,126.867218,1733.4,8667,8073,1873,1968,1841,1621,1364
ST-1351,1351,1351. 안암2교 옆,성북구,서울특별시 강서구 강서로56나길 110 부영아파트 ,37.562744,126.842674,1730,8650,8772,1770,1655,2026,1623,1576
ST-1691,1691,1691. 노원정보도서관,노원구,서울특별시 마포구 대흥동 105-4 ,37.54847,126.940926,1727.4,8637,8634,1827,1836,1858,1531,1585
ST-179,179,179. 가좌역 4번출구 앞,서대문구,서울특별시 종로구 평동 213 서대문역 3번출구 뒤,37.566471,126.966827,1726.8,8634,8871,1560,1714,2017,1653,1690
ST-254,254,254. 도림신협 앞,영등포구,서울특별시 광진구 강변역로 87-2 가로판매대 - 28 ,37.535824,127.094162,1726.6,8633,9313,1732,1818,1993,1614,1476
ST-385,385,385. 종각역 5번출구,종로구,서울특별시 광진구 능동로 216 아차산역4번출구,37.551849,127.088982,1725.4,8627,8703,1778,1694,1817,1643,1695
ST-1059,1059,1059. 래미안 강동팰리스(102동),강동구,서울특별시 강동구 아리수로97길 68 강일리버파크2단지아파트 ,37.568546,127.17701,1724.6,8623,6325,1996,1703,1885,1526,1513
ST-119,119,119. 서강나루 공원,마포구,서울특별시 종로구 세종대로 지하189 세종로공원,37.57177,126.974663,1723.4,8617,9036,1498,1754,2285,1688,1392
ST-1021,1021,1021. 강일동 리슈빌 빌딩앞,강동구,서울특별시 은평구 역촌동 17-55 역촌역 1번 출구,37.605202,126.922112,1722.8,8614,9647,1670,1741,2005,1647,1551
ST-1259,1259,1259. 방이역 1번출구,송파구,서울특별시 관악구 남부순환로 1641 관악우체국,37.484768,126.932877,1718.2,8591,8610,1672,1763,1899,1677,1580
ST-1174,1174,1174. 강서구청사거리(부민병원),강서구,서울특별시 강남구 도산대로 333 K+ 타워 앞,37.5233,127.038475,1711.6,8558,8585,1822,1694,1898,1566,1578
ST-539,539,539. 군자교교차로,광진구,서울특별시 송파구 올림픽로 8 송파구 잠실동 50,37.510429,127.071373,1708,8540,8502,1678,1656,2119,1717,1370
ST-530,530,530. 청계벽산아파트 앞,성동구,서울특별시 강서구 등촌로 185 강서구 등촌동 608-4,37.546532,126.862549,1703.8,8519,9248,1513,1527,2376,1626,1477
ST-678,678,678.장안힐스테이트(아) 앞,동대문구,서울특별시 구로구 남부순환로 775 개봉푸르지오 ,37.501705,126.847282,1693.6,8468,10161,1649,1744,1936,1608,1531
ST-1319,1319,1319. 종암박스파크,성북구,서울특별시 영등포구 경인로 843 영등포역지하도상가 ,37.51627,126.90686,1691,8455,8699,1575,1658,1960,1840,1422
ST-1450,1450,1450. 화랑대역 7번출구,중랑구,서울특별시 동대문구 제기로 131 청량리동 한신아파트 입구,37.586769,127.04776,1690.2,8451,9112,1801,1639,2016,1692,1303
ST-660,660,660. 동의보감타워,동대문구,서울특별시 금천구 독산동 727-1 ,37.456726,126.893066,1686,5058,5266,2156,2148,754,0,0
ST-266,266,266. 영등포청과시장 사거리,영등포구,서울특별시 동대문구 겸재로 21 휘경공고앞,37.584625,127.07029,1684.8,8424,8186,1864,1779,1850,1520,1411
ST-1716,1716,1716. 창동역 1번출구 건너편,도봉구,서울특별시 송파구 거여동 11-3 ,37.497047,127.14035,1684.4,8422,8819,949,1058,1262,2328,2825
ST-1692,1692,1692. 온곡초교 교차로,노원구,서울특별시 마포구 모래내로 31 성산2-1 공영주차장,37.56472,126.906769,1682.8,8414,6165,1775,1759,1671,1469,1740
ST-841,841,841. 신용산역 1번 출구,용산구,서울특별시 성북구 성북로 62 성북구 성북동 142-1,37.592758,127.002357,1681.6,8408,8854,1597,1825,2092,1600,1294
ST-2384,2384,2384. 자곡사거리,강남구,서울특별시 관악구 신림동 138-2 ,37.468567,126.946754,1677.2,8386,9122,1515,1607,2020,1708,1536
ST-729,729,729. 서부식자재마트 건너편,양천구,서울특별시 동작구 동작대로 지하 3 동작구 사당동 1112,37.481491,126.981583,1672,8360,9034,1658,1609,1880,1664,1549
ST-1081,1081,1081.트레빌빌딩,강동구,서울특별시 송파구 송파동 2-3 송파여성문화회관 앞,37.505802,127.109718,1672,8360,7319,1817,1791,1834,1586,1332
ST-2404,2404,2404. 대모산입구역 4번 출구 앞,강남구,서울특별시 서초구 헌릉로 7 외국기업창업지원연구센터 ,37.465408,127.043777,1671.6,8358,8812,1541,1711,1840,1742,1524
ST-3407,3407,3407.안국동사거리(신),종로구,서울특별시 양천구 목동 413-3 ,37.544704,126.882515,1670.6,8353,7978,1661,1501,1816,1778,1597
ST-943,943,943. 은평구청 보건소,은평구,서울특별시 중구 을지로 지하 178 을지로4가역 1번출구,37.566731,126.996605,1670.4,8352,9834,1607,1688,2071,1552,1434
ST-3013,3013,3013.서울지방고용노동청 앞,중구,서울특별시 구로구 서울 구로구 구로동 496-128 ,37.500965,126.88237,1668.8,8344,8497,1705,1491,1930,1689,1529
ST-2222,2222,2222.사당역 12번출구 뒤,서초구,서울특별시 성북구 하월곡동 96-248 ,37.601086,127.041237,1664.8,8324,10696,1553,1653,2016,1608,1494
ST-623,623,623. 서울시립대 정문 앞 B,동대문구,서울특별시 금천구 가산디지털1로 63 LG전자 가산 R&D 캠퍼스 별관동 ,37.471436,126.885376,1664.6,8323,4699,1761,1501,1866,1743,1452
ST-1165,1165,1165. 마곡중학교 후문,강서구,서울특별시 서초구 양재동 67-12 일동제약 사거리,37.477829,127.038269,1663.8,8319,6023,1626,1738,1847,1595,1513
ST-563,563,563. 성동세무서 건너편,성동구,서울특별시 성북구 동소문로 248 동소문로248,37.603085,127.024788,1662.2,8311,9458,1894,1593,1804,1503,1517
ST-577,577,577. 광진청소년수련관,광진구,서울특별시 중랑구 신내로 지하 232 봉화산역 5번출구 뒤,37.617561,127.090309,1660.6,8303,8475,1639,1693,1868,1642,1461
ST-2259,2259,2259. 잠원역 3번-4번 출구사이 ,서초구,서울특별시 은평구 진관동 298-2 ,37.656769,126.942009,1658.4,8292,9000,1480,1652,2041,1676,1443
ST-205,205,205. 산업은행 앞,영등포구,서울특별시 마포구 도화동 292-29 마포역 4번출구 뒤,37.539272,126.945915,1654,8270,8113,1758,1724,1843,1611,1334
ST-2058,2058,2058. 동작경찰서,동작구,서울특별시 강서구 수명로2길 105 마곡수명산파크5단지아파트 ,37.550617,126.826881,1653.2,8266,10185,1584,1735,1963,1727,1257
ST-114,114,114. 홍대입구역 8번출구 앞,마포구,서울특별시 광진구 광나루로 355 광진메디컬앞,37.548405,127.069366,1650,8250,8406,1651,1732,1907,1562,1398
ST-657,657,657. 동대문롯데캐슬아파트 앞,동대문구,서울특별시 도봉구 도봉로 955 도봉동 637-1,37.68972,127.045197,1649.8,8249,8603,1803,1593,1797,1527,1529
ST-1827,1827,1827. 독산보도육교 앞 자전거 보관소,금천구,서울특별시 종로구 비봉길 12 ,37.609501,126.95668,1649.4,8247,8757,1613,1738,2181,1964,751
ST-1975,1975,1975. 대림역 1번 출입구 밑,구로구,서울특별시 영등포구 도림동 187-87 ,37.511242,126.898186,1648.8,8244,8099,1610,1669,1839,1578,1548
ST-417,417,417. DMC역 2번출구 옆,마포구,서울특별시 영등포구 선유로 34 근로자회관 사거리,37.517151,126.888626,1648.4,8242,7749,1504,1553,1970,1667,1548
ST-1199,1199,1199. 우장산역 3번출구,강서구,서울특별시 성동구 성수동1가 678-1 서울숲 관리사무소,37.542816,127.042084,1648,8240,5911,1899,1565,1828,1541,1407
ST-123,123,123. 문화촌 공원,서대문구,서울특별시 종로구 새문안로 55 서울역사박물관 앞,37.57,126.9711,1646.2,8231,8184,1691,1797,1868,1491,1384
ST-2627,2627,2627.문정시영아파트 5동 앞 공원,송파구,서울특별시 강서구 하늘길 112 ,37.556885,126.809265,1643.8,8219,3146,1630,1710,1837,1552,1490
ST-2067,2067,2067. 보라매역?동작세무서 버스정류장(강남중학교방면),동작구,서울특별시 노원구 섬밭로 139 공릉풍림아파트 ,37.629814,127.066505,1636.4,8182,8379,1606,1825,1893,1464,1394
ST-3422,3422,3422.성균관대 정문,종로구,서울특별시 광진구 자양로 167 광진경찰서 ,37.543007,127.084274,1621.2,8106,7309,1550,1420,1939,1656,1541
ST-214,214,214. 금융감독원 앞,영등포구,서울특별시 마포구 아현동 607-1 애오개역 4번출구 앞,37.553001,126.956688,1620,8100,7987,1632,1442,2034,1597,1395
ST-1742,1742,1742. 북한산 코오롱 하늘채,도봉구,서울특별시 동작구 사당로23길 137 대림아파트 후문 상가 옆,37.488869,126.971909,1619.8,8099,8092,1756,1679,1797,1428,1439
ST-2230,2230,2230.이수역 4번 출구,서초구,서울특별시 성북구 고려대로 76 ,37.586121,127.027611,1618.8,8094,8452,1619,1701,1930,1503,1341
ST-1033,1033,1033. 고덕동 아남아파트,강동구,서울특별시 은평구 불광동 484-165 연신내 선일하이츠빌 정류소,37.622669,126.919991,1618.8,8094,5786,1567,1867,1737,1485,1438
ST-2901,2901,2901.공릉동풍림아파트 101동,노원구,서울특별시 영등포구 영등포구 가마산로79길 19 ,37.506012,126.915886,1616.4,8082,8233,1653,1727,1770,1472,1460
ST-1962,1962,1962. 가리봉동주민센터,구로구,서울특별시 구로구 고척동 60-42 ,37.50452,126.870552,1616.2,8081,7302,1653,1602,1855,1450,1521
ST-2910,2910,2910.도깨비시장,노원구,서울특별시 금천구 독산로36길 14 ,37.458942,126.90593,1615.2,8076,8750,1532,1635,1811,1589,1509
ST-1966,1966,1966. 한마을아파트 정문상가,구로구,서울특별시 구로구 가마산로 141 ,37.488647,126.88047,1614.4,8072,8271,1728,1590,1947,1422,1385
ST-1708,1708,1708. 도봉보건소사거리,도봉구,서울특별시 강서구 마곡중앙로 201 롯데중앙연구소,37.571381,126.828339,1611.6,8058,8175,1660,1681,1747,1551,1419
ST-221,221,221. 여의도초교 앞,영등포구,서울특별시 서대문구 북가좌동 477-1 북가좌1동 주민센터,37.574478,126.910049,1609.8,8049,7898,1504,1620,1777,1674,1474
ST-587,587,587. 유니베라 앞,성동구,서울특별시 중랑구 신내역로 213 신내우디안아파트 1단지,37.620098,127.106461,1609.4,8047,8565,1637,1485,1742,1581,1602
ST-329,329,329. 청계2가 사거리 옆,종로구,서울특별시 용산구 서빙고동 235-5 서빙고동 금호맨션 앞,37.520504,126.989738,1604.8,8024,6659,1555,1783,1795,1540,1351
ST-1333,1333,1333. 석관초등학교 앞,성북구,서울특별시 중랑구 묵동 6-3 ,37.619637,127.085045,1602.2,8011,9101,1123,1114,1868,2012,1894
ST-1080,1080,1080.천호지하주차장 5번 출입구,강동구,서울특별시 송파구 송파동 69 석촌역 1번출구 앞,37.505829,127.107056,1599.4,7997,7846,1391,1535,1726,1706,1639
ST-157,157,157. 애오개역 4번출구 앞,마포구,서울특별시 종로구 대학로 지하120 혜화역 3번출구 뒤,37.58157,127.001785,1594,7970,8775,1619,1645,1917,1414,1375
ST-292,292,292. 영일 어린이공원,영등포구,서울특별시 영등포구 양평동3가 48-1 이앤씨드림타워 앞,37.527084,126.89138,1593,7965,7719,1511,1542,1706,1656,1550
ST-1354,1354,1354. 고려대학교 2번출구,성북구,서울특별시 영등포구 여의대방로 300 대방역 4번출구,37.512901,126.926613,1591.6,7958,7932,1409,1381,1961,1635,1572
ST-1705,1705,1705. 도봉구청 정문앞,도봉구,서울특별시 송파구 올림픽로 99 잠실엘스 261동 인근,37.516781,127.090492,1589.8,7949,8097,1561,1605,1756,1588,1439
ST-1994,1994,1994. 삼성전자 물류센터 앞,구로구,서울특별시 양천구 목동동로 350 목동신시가지아파트5단지 ,37.535667,126.881584,1589.4,7947,7862,1707,1715,1630,1483,1412
ST-111,111,111. 상수역 2번출구 앞,마포구,서울특별시 성동구 아차산로 18 뚝섬역 5번 출구 정류소 옆,37.546307,127.049805,1581.6,7908,7835,1242,1529,1958,1763,1416
ST-1530,1530,1530. 광산사거리,강북구,서울특별시 구로구 구일로10길 27 SK허브수 앞,37.49596,126.874039,1580,7900,8043,1661,1681,1741,1469,1348
ST-1088,1088,1088.풍납사거리(강동),강동구,서울특별시 송파구 올림픽로 135 리센츠아파트,37.511944,127.091217,1578.6,7893,7884,1544,1683,1689,1469,1508
ST-756,756,756. 목동주차장,양천구,서울특별시 서초구 방배로1길 9 서초구 방배동 1034-2,37.475182,127.001389,1571.4,7857,8218,1487,1595,1752,1609,1414
ST-166,166,166. 가재울 초등학교,서대문구,서울 종로구 사직로8길 39 ,37.574245,126.973213,1570.2,7851,7797,1406,1587,1881,1578,1399
ST-310,310,310. 청계광장 옆,중구,서울특별시 양천구 목동 904-3 목4동주민센터 옆,37.532543,126.868729,1566.2,7831,7082,1604,1401,1897,1687,1242
ST-2740,2740,2740.마곡레포츠센터,강서구,서울특별시 강동구 풍성로 136 성내동삼성아파트 ,37.531376,127.127075,1564.2,7821,7780,1260,1407,1967,1573,1614
ST-719,719,719. 홍익병원앞 교차로,양천구,서울특별시 관악구 남부순환로 1889 관악구 봉천동 1693-38,37.478058,126.960495,1563.4,7817,7959,1638,1587,1764,1387,1441
ST-1830,1830,1830. 빅마켓 금천점 앞,금천구,서울특별시 강동구 동남로 888 ,37.553055,127.156883,1561.6,7808,7952,1673,1626,1771,1345,1393
ST-3415,3415,3415.동대문역6번출구,종로구,서울특별시 강서구 강서도매시장로 72 강서농산물도매시장 ,37.555347,126.820724,1560.6,7803,8510,1554,1555,1689,1497,1508
ST-1380,1380,1380.월곡역 5번출구 앞,성북구,서울특별시 중랑구 용마산로 494 상아빌딩(우림시장 교차로),37.595112,127.100327,1560.2,7801,8759,1470,1492,1800,1612,1427
ST-2606,2606,2606. 위례동주민센터,송파구,서울특별시 송파구 가락동 184-23 ,37.492733,127.117989,1560.2,7801,8502,1730,1612,1882,1650,927
ST-2228,2228,2228.뒷벌공원 옆,서초구,서울 성북구 동소문로 258 ,37.603909,127.025017,1554.8,7774,8970,1559,1659,1775,1370,1411
ST-2332,2332,2332. 선릉역3번출구,강남구,서울특별시 성동구 금호로 15 서울숲푸르지오아파트 ,37.544041,127.023201,1552.4,7762,7792,1602,1693,1681,1518,1268
ST-204,204,204. 국회의사당역 5번출구 옆,영등포구,서울특별시 마포구 도화동 555-2 마포역 1번출구 뒤,37.539936,126.945824,1551.8,7759,7586,1600,1399,1717,1550,1493
ST-490,490,490.가온문화공원,마포구,서울특별시 강동구 고덕로 131 강동 롯데캐슬퍼스트아파트 ,37.554867,127.142799,1549.8,7749,7670,1470,1666,1786,1401,1426
ST-1681,1681,1681. 현대6차 아파트,노원구,서울특별시 송파구 올림픽로 326 송파구청 ,37.514992,127.106117,1548.4,7742,5730,1618,1677,1653,1346,1448
ST-1245,1245,1245. 문정 법조단지9,송파구,서울특별시 강남구 봉은사로 456 삼성동베이직하우스앞,37.511696,127.049347,1548.2,7741,7611,1431,1635,1731,1603,1341
ST-1907,1907,1907. 구일우성(아) 육교 밑,구로구,서울특별시 서초구 신반포로 270 반포자이아파트 ,37.506378,127.010391,1542.6,7713,7498,1591,1582,1672,1407,1461
ST-1128,1128,1128. 화곡역 6번출구,강서구,서울특별시 노원구 하계동 266 서울시립과학관,37.642071,127.076622,1538.4,7692,7635,1617,1622,1628,1499,1326
ST-2604,2604,2604. 풍납토성 서성벽터A,송파구,서울특별시 송파구 풍납동 425 ,37.528652,127.108665,1538.2,7691,8356,1650,1527,1739,1404,1371
ST-488,488,488.푸르메병원,마포구,서울특별시 강동구 올림픽로 812 ,37.553329,127.128868,1534,7670,8154,1525,1519,1735,1398,1493
ST-1824,1824,1824. 독산근린공원 입구,금천구,서울특별시 종로구 무악동 60-5 ,37.576668,126.955849,1532.2,7661,7802,1462,1470,1734,1536,1459
ST-288,288,288. 쌍용예가(구청별관),영등포구,서울특별시 영등포구 영등포동7가 58-2 유스호스텔 앞,37.525852,126.903282,1530.2,7651,7713,1588,1503,1711,1422,1427
ST-456,456,456. 숭인2동 주민센터 입구,종로구,서울특별시 은평구 갈현동 536-8 구산역 4번출구,37.613186,126.917351,1527.8,7639,8072,1540,1522,1814,1432,1331
ST-1959,1959,1959. 구로구의회 앞,구로구,서울특별시 구로구 오리로 1100 천왕연지타워 ,37.483665,126.841614,1527,7635,8300,1396,1472,1814,1515,1438
ST-220,220,220. 미성아파트 A동 앞,영등포구,서울특별시 서대문구 홍은동 산25-3 명지전문대학교 정문 앞,37.583698,126.924965,1524.8,7624,7295,1626,1379,1758,1445,1416
ST-1141,1141,1141. 곰달래 문화복지센터 A,강서구,서울특별시 금천구 가산로9길 80 ,37.475552,126.888458,1523.8,7619,8856,1486,1432,1695,1563,1443
ST-558,558,558. 성동광진 교육지원청 앞,성동구,서울특별시 중랑구 동일로 941 중랑구 묵동 189-2,37.614738,127.076363,1522,7610,7395,1586,1506,1735,1462,1321
ST-2060,2060,2060. 남성역3번출구 뒤,동작구,서울특별시 노원구 석계로13길 35 세양청마루아파트 ,37.620708,127.061203,1518.6,7593,8981,1479,1636,1746,1371,1361
ST-255,255,255. 도림사거리,영등포구,서울특별시 광진구 강변역로 94-2 가로판매대 - 34 ,37.535988,127.094627,1518.4,7592,7765,1612,1641,1629,1373,1337
ST-2658,2658,2658.가락몰 업무동,송파구,서울특별시 서초구 반포동63-6 ,37.501507,127.003479,1518,7590,7852,1588,1607,1853,1110,1432
ST-669,669,669.청계한신휴플러스앞 삼거리,동대문구,서울특별시 구로구 디지털로31길 120 구로구 구로동 772,37.4888,126.890663,1517,7585,7747,1438,1566,1678,1398,1505
ST-1305,1305,1305. 성북구청,성북구,서울특별시 서초구 서초중앙로 130 교대역 5번출구 뒤,37.493618,127.014183,1516.6,7583,8283,1612,1586,1791,1384,1210
ST-201,201,201. 진미파라곤 앞,영등포구,서울특별시 마포구 마포대로 109 롯데캐슬 프레지던트 ,37.544647,126.950089,1515.8,7579,7476,1625,1524,1778,1446,1206
ST-2414,2414,2414. 도곡역 아카데미스위트 앞,강남구,서울특별시 서초구 잠원동 83 ,37.518322,127.014809,1514.4,7572,8068,1592,1533,1711,1368,1368
ST-834,834,834. 효창공원앞역 3번출구 앞,용산구,서울특별시 강서구 공항대로 329 강서구 등촌동 675-7,37.558197,126.844261,1513.6,7568,8057,1435,1484,1674,1534,1441
ST-578,578,578. 성동세무서 부근,성동구,서울특별시 성북구 석관동 113-1 ,37.612923,127.066406,1509,7545,7623,1649,1310,1715,1536,1335
ST-609,609,609. 제기2교,동대문구,서울특별시 노원구 덕릉로131길 8 노원구 상계동 37-7,37.67271,127.08316,1505.8,7529,7523,1483,1551,1761,1510,1224
ST-2231,2231,2231. 삼성타운(삼성생명) A동 맞은편,서초구,서울특별시 성북구 석관동 323-2 ,37.606461,127.061623,1501,7505,8160,1575,1549,1688,1316,1377
ST-542,542,542. 강변역 4번출구 뒤,광진구,서울특별시 송파구 오금로 20 송파구 신천동 15,37.520451,127.104202,1496.4,7482,7524,1488,1443,1689,1543,1319
ST-1274,1274,1274. 영파여고 앞,송파구,서울특별시 구로구 가마산로 245 구로구청,37.495266,126.888474,1494.8,7474,7377,1552,1528,1727,1361,1306
ST-1804,1804,1804. 독산역 2번출구 자전거주차장,금천구,서울특별시 종로구 안국동 175-92 ,37.575806,126.983391,1492.4,7462,7507,1496,1496,1634,1376,1460
ST-1478,1478,1478.홈플러스 상봉점 앞,중랑구,서울특별시 은평구 응암로 279 드림캐시아 주상복합,37.597439,126.920036,1492,7460,7563,1452,1490,1638,1530,1350
ST-1924,1924,1924. 삼부르네상스파크빌,구로구,서울특별시 서초구 사평대로 108 반포골프백화점 ,37.49905,126.996254,1491.8,7459,3289,1522,1534,1613,1418,1372
ST-680,680,680.꿈마루어린이도서관 앞,동대문구,서울특별시 구로구 경인로20길 13 구로구 오류동 65-6,37.495029,126.843613,1489.4,7447,6938,1435,1559,1710,1468,1275
ST-3009,3009,3009. 홍대입구역 사거리,마포구,서울특별시 서초구 서초구 동광로 몽마르뜨공원 입구 ,37.492889,127.002647,1486.2,7431,7500,1325,1341,1730,1598,1437
ST-716,716,716.신정6동 주민센터 인근,양천구,서울특별시 관악구 남부순환로 1427 관악구 신림동 564,37.481129,126.909431,1483.6,7418,7316,1450,1599,1607,1289,1473
ST-2909,2909,2909. 석계역 3번 출구,노원구,서울특별시 강동구 강동구 강일동 736 ,37.557072,127.17514,1478.6,7393,7728,1404,1358,1749,1544,1338
ST-2202,2202,2202.청계산입구역 1번출구,서초구,서울특별시 서대문구 성산로 520 이화여자대학교 부속 중학교 ,37.564068,126.945328,1473.6,7368,7146,1506,1546,1595,1314,1407
ST-1003,1003,1003. 해공도서관앞,강동구,서울특별시 양천구 화곡로 59 신월동 이마트,37.539551,126.8283,1473.6,7368,7384,1468,1575,1637,1320,1368
ST-252,252,252. 보라매역4번출구,영등포구,서울특별시 광진구 중곡동 263-1 군자교교차로,37.559795,127.074203,1472.4,7362,8574,1581,1432,1633,1373,1343
ST-2059,2059,2059. 보라매공원 정문,동작구,서울특별시 강서구 화곡로65길 62 강서구민올림픽체육센터 ,37.559906,126.850426,1470.2,7351,7615,1399,1577,1770,1375,1230
ST-326,326,326. 안국역 5번출구 앞,종로구,서울특별시 용산구 문배동 34-10 문배어린이공원 앞,37.536758,126.970001,1462.6,7313,5566,1591,1453,1670,1361,1238
ST-3204,3204,3204.도림고가도로 밑,영등포구,서울특별시 영등포구 경인로 900 여의도더리브스타일 ,37.517918,126.912598,1460.4,7302,6577,1458,1445,1642,1454,1303
ST-917,917,917. 녹번역 3번출구,은평구,서울특별시 금천구 벚꽃로 309 가산동 60-35,37.480148,126.883781,1458.4,7292,7159,1382,1444,1924,1239,1303
ST-1212,1212,1212. 송파역 2번 출구앞,송파구,서울특별시 성북구 길음로 20 성북제일새마을금고 본점 앞,37.604752,127.022758,1458.2,7291,7808,1524,1504,1571,1395,1297
ST-1931,1931,1931. 개봉역2번출구 A,구로구,서울특별시 금천구 시흥대로 165 남서울힐스테이트아파트 ,37.446526,126.900238,1458,7290,9166,1465,1414,1704,1397,1310
ST-1991,1991,1991. 오류동역 맞은편,구로구,서울특별시 영등포구 신길동 3859 ,37.500137,126.913979,1456,7280,8931,1425,1479,1693,1353,1330
ST-1404,1404,1404. 동일로 지하차도,중랑구,서울특별시 서초구 서초중앙로 38 남부터미널역 1번출구,37.485672,127.015923,1455.4,7277,7253,1564,1411,1706,1226,1370
ST-1606,1606,1606. 태릉입구역 3번출구 ,노원구,서울특별시 종로구 종로 지하 200 종로5가 지하쇼핑센터 14번출구,37.57114,127.000671,1454.8,7274,7338,1421,1514,1675,1332,1332
ST-1471,1471,1471.동양쇼핑 정류소 앞,중랑구,서울특별시 도봉구 덕릉로60바길 21 창동한신,37.638859,127.041176,1454.4,7272,8236,1528,1414,1635,1374,1321
ST-763,763,763. 목동11단지 아파트,양천구,서울특별시 서초구 효령로 176 ,37.482357,127.003387,1453.6,7268,5561,1345,1684,1627,1210,1402
ST-2294,2294,2294. 두상빌딩 앞,서초구,서울특별시 중랑구 중화동 321-129 ,37.594891,127.074951,1453.2,7266,8071,1458,1485,1609,1394,1320
ST-635,635,635. 시조사 앞,동대문구,서울특별시 금천구 시흥대로150길 6 독산동 996-9,37.475319,126.898888,1448.4,7242,7201,1465,1429,1661,1443,1244
ST-1260,1260,1260. 방이동 한양3차아파트 옆,송파구,서울특별시 관악구 남부순환로 1943 JK장평타워,37.476482,126.965363,1448,7240,7146,1495,1501,1524,1379,1341
ST-1004,1004,1004. 삼성광나루아파트 버스정류장,강동구,서울특별시 양천구 신정이펜1로50 신정이펜하우스314동,37.514099,126.831001,1447.4,7237,10177,1437,1419,1693,1502,1186
ST-107,107,107. 수협 연남동지점,마포구,서울특별시 성동구 왕십리로11길 9 서울숲남문 버스정류소 옆,37.541222,127.0438,1445.2,7226,8121,1353,1505,1724,1347,1297
ST-1390,1390,1390.석관래미안아트리치,성북구,서울특별시 강북구 삼양로 426 가오리역,37.64167,127.016884,1445.2,7226,7908,1595,1520,1535,1405,1171
ST-1928,1928,1928. 고척스카이돔구장 광장,구로구,서울특별시 서초구 강남대로 617-2 구두수선대 ,37.516541,127.01915,1441.6,7208,7011,1541,1605,1512,1238,1312
ST-2265,2265,2265. 이수고가차도 남단,서초구,서울특별시 동대문구 한천로58길 47 쌍용아파트 ,37.599606,127.068642,1441.4,7207,8127,1325,1562,1671,1409,1240
ST-104,104,104. 합정역 1번출구 앞,마포구,서울특별시 성동구 성수이로 147 아이에스비즈타워 앞,37.548203,127.057114,1437.8,7189,6168,1351,1466,1644,1472,1256
ST-525,525,525. 한양대병원사거리,성동구,서울특별시 강서구 화곡로 지하 168 강서구 화곡동 1089-43,37.542099,126.840218,1435.2,7176,6129,1336,1210,1595,1549,1486
ST-493,493,493.홍대입구역 6번출구,마포구,서울특별시 강동구 천호대로 1005 현대백화점 ,37.538666,127.124245,1435,7175,7278,1450,1495,1547,1386,1297
ST-1265,1265,1265. 문정동 근린공원,송파구,서울특별시 관악구 남부순환로 1451 조원동서울본병원,37.481529,126.912033,1434.6,7173,7556,1441,1369,1557,1388,1418
ST-1841,1841,1841. 가산동 주민센터,금천구,서울특별시 강동구 천호대로 1052 엘웨딩홀 ,37.536831,127.128418,1430,7150,7394,1601,1426,1577,1276,1270
ST-1385,1385,1385.성신여대입구역 3번출구 앞,성북구,서울특별시 성북구 월계로 172 장위뉴타운 꿈에 숲 코오롱 하늘채 앞,37.619801,127.045097,1427.8,7139,7146,1414,1483,1655,1258,1329
ST-2725,2725,2725.서울식물원 식물문화센터,강서구,서울특별시 도봉구 도봉구 덕릉로62길 14 ,37.640511,127.040825,1422,7110,6053,1343,1439,1630,1499,1199
ST-2651,2651,2651.경찰병원역 3번출구 앞,송파구,서울특별시 동작구 여의대방로36길71 ,37.506805,126.928505,1421.6,7108,7056,1512,1551,1579,1277,1189
ST-1108,1108,1108. 공항시장역 2번출구 뒤,강서구,서울특별시 강북구 번동 105 북서울 꿈의 숲 동문,37.619637,127.044533,1420.8,7104,7096,1363,1528,1550,1301,1362
ST-1433,1433,1433. 중화역 2번출구,중랑구,서울특별시 강남구 삼성로 628 강남구 도시관리공단,37.516785,127.051613,1419.4,7097,7962,1457,1458,1568,1405,1209
ST-178,178,178. 증산3교 앞,서대문구,서울특별시 종로구 지봉로 87 창신역 1번출구 앞,37.579334,127.015083,1416.2,7081,7351,1384,1411,1695,1356,1235
ST-438,438,438. 성산2-1 공영주차장,마포구,서울특별시 용산구 원효로97길 33-4 선린인터넷 고등학교,37.541653,126.970505,1412,7060,6282,1327,1381,1631,1402,1319
ST-550,550,550. 서울시설공단 앞,성동구,서울특별시 송파구 올림픽로 240 롯데월드 ,37.511841,127.095688,1410.2,7051,7482,1478,1346,1651,1321,1255
ST-155,155,155. 가좌역1 번출구 앞,마포구,서울특별시 종로구 종로 185 종로4가 사거리,37.571068,126.998192,1410.2,7051,6638,1342,1385,1589,1376,1359
ST-2252,2252,2252. 잔디마을 마을버스 정류장,서초구,서울특별시 은평구 가좌로 316 상신교회 ,37.59581,126.910263,1408,7040,6970,1468,1320,1508,1456,1288
ST-2653,2653,2653.올림픽공원사거리(선수촌아파트),송파구,서울특별시 동작구 신대방동 702-2 ,37.485008,126.903503,1402,7010,6907,1523,1507,1472,1217,1291
ST-605,605,605. 신설동역8번출구,동대문구,서울특별시 노원구 동일로 지하 1196 노원구 하계동 273-5,37.635109,127.068329,1400.6,7003,7094,1507,1472,1544,1252,1228
ST-2115,2115,2115. 관악구시설관리공단,관악구,서울특별시 도봉구 도봉동 646-1 ,37.684738,127.050041,1399.8,6999,5544,1479,1512,1502,1266,1240
ST-571,571,571. 세종대학교 대양AI센터,광진구,서울특별시 성북구 화랑로 148 성북구 상월곡동 산7-1,37.605808,127.047737,1399.2,6996,6963,1262,1059,1635,1513,1527
ST-475,475,475.DDP 패션몰,중구,서울특별시 은평구 불광동 304-5 연신내역 3번출구 인근,37.617855,126.922524,1398.4,6992,6345,1649,1262,1661,1274,1146
ST-650,650,650. 중랑교사거리,동대문구,서울특별시 강북구 노해로 50 수유동 140,37.639862,127.022789,1397.8,6989,6300,1322,1419,1751,1317,1180
ST-1282,1282,1282. 송파소방서 맞은편(성내4교),송파구,서울특별시 노원구 중계동 362 ,37.646996,127.076401,1397.6,6988,8276,1390,1397,1588,1408,1205
ST-521,521,521. 왕십리역 11번 출구 앞,성동구,서울특별시 강서구 강서로80길 117 강서구 가양동 1459-9,37.57048,126.849503,1395.8,6979,6975,1367,1355,1588,1409,1260
ST-2054,2054,2054. 삼익아파트,동작구,서울특별시 강서구 화곡동 662-6 ,37.53159,126.846642,1395.6,6978,7064,1456,1520,1581,1318,1103
ST-145,145,145. 공덕역 5번출구,마포구,서울특별시 종로구 청계천로 93 파고다타워 ,37.568485,126.987885,1394.4,6972,9478,1251,1380,1713,1389,1239
ST-1204,1204,1204. 거여역 3번출구,송파구,서울특별시 성북구 장위동 134-27 ,37.617844,127.055,1390.2,6951,7388,1407,1393,1464,1368,1319
ST-2407,2407,2407. 역삼서초삼성 세무서 앞 (역삼빌딩 앞),강남구,서울특별시 광진구 구의동 201-2 ,37.542465,127.094231,1389.8,6949,6723,1343,1429,1574,1307,1296
ST-860,860,860.LG한강 자이아파트 앞,용산구,서울특별시 강북구 오현로25마길 27 번동 230,37.633717,127.035515,1385,6925,7123,1372,1362,1691,1456,1044
ST-270,270,270. 증권거래소후문교차로,영등포구,서울특별시 동대문구 답십리동 524-1 동대문중 교차로,37.573086,127.052162,1384.2,6921,6841,1394,1302,1733,1264,1228
ST-1306,1306,1306. 한성대입구역2번출구,성북구,서울특별시 서초구 반포대로 43 서울서초고용센터 앞,37.484161,127.010971,1383.8,6919,6882,1487,1424,1539,1332,1137
ST-2656,2656,2656.풍납동 아이파크 107동 앞,송파구,서울특별시 서초구 서초동1526-1 ,37.483395,127.007362,1380.8,6904,6895,1325,1308,1561,1385,1325
ST-2342,2342,2342. 대청역 1번출구  뒤,강남구,서울특별시 성동구 천호대로78길 9 ,37.563709,127.05645,1379.6,6898,6900,1355,1406,1602,1319,1216
ST-3203,3203,3203.도림동배드민턴체육관,영등포구,서울특별시 성북구 길음동 1289-5 ,37.608849,127.028458,1379,6895,6808,1501,1561,1537,1241,1055
ST-1206,1206,1206. 9호선종합운동장역 9번출구,송파구,서울특별시 성북구 성북로21길 32 성북쉼터 앞,37.592617,126.997932,1376.8,6884,6729,1432,1282,1501,1316,1353
ST-1952,1952,1952. 천왕연지타운2단지 앞,구로구,서울특별시 구로구 항동 120-7 ,37.479832,126.822754,1376.8,6884,9533,1265,1378,1556,1438,1247
ST-2431,2431,2431.대치역 7번출구,강남구,서울특별시 중구 을지로6가 18-169 ,37.568314,127.00946,1374.2,6871,7112,1384,1464,1600,1295,1128
ST-1670,1670,1670. 노원경찰서교차로,노원구,서울특별시 중구 퇴계로 33 SK 남산빌딩,37.556862,126.975616,1374,6870,6554,1524,1359,1487,1265,1235
ST-427,427,427. 성산시영아파트,마포구,서울특별시 양천구 목동서로 201 KT 목동타워 앞,37.52845,126.8722,1373,6865,7569,1387,1392,1577,1359,1150
ST-345,345,345. 서울보증보험본사 앞,종로구,서울특별시 서대문구 북가좌동 427-1 ,37.577637,126.909653,1365.4,6827,7395,1436,1354,1498,1222,1317
ST-2066,2066,2066. 양문교회 앞,동작구,서울특별시 노원구 한글비석로 480 보람아파트2단지 ,37.665215,127.066139,1364,6820,7666,1417,1393,1564,1195,1251
ST-819,819,819. 선린인터넷 고등학교,용산구,서울특별시 강남구 선릉로 지하 228 강남세브란스교차로  래미안그레이튼 104동 앞,37.494236,127.047462,1364,6820,7247,1268,1427,1652,1318,1155
ST-3414,3414,3414.종로5가역 4번출구,종로구,서울특별시 강남구 헌릉로 747 ,37.468056,127.120361,1362.6,6813,6919,1253,1389,1540,1308,1323
ST-700,700,700. KB국민은행 염창역 지점 앞,양천구,서울특별시 동작구 만양로 84 노량진동 118-14,37.510548,126.944847,1361.6,6808,5722,1391,1409,1469,1326,1213
ST-1407,1407,1407. 먹골역 1번출구 뒤,중랑구,서울특별시 강남구 자곡로 101 래미안강남힐즈 사거리,37.472454,127.096077,1361.4,6807,7594,1411,1447,1524,1285,1140
ST-766,766,766. 신목동역 3번출구,양천구,서울특별시 강남구 논현로 201 강남구 도곡동 207,37.485378,127.041702,1361.2,6806,6757,1264,1442,1722,1398,980
ST-1129,1129,1129. 화곡역 1번 출구 앞,강서구,서울특별시 도봉구 쌍문동 315-488 ,37.651653,127.028488,1361.2,6806,6793,1381,1302,1501,1412,1210
ST-1334,1334,1334. 석관동주민센터 앞,성북구,서울특별시 중랑구 망우로 176 중랑세무서,37.592758,127.07267,1359.4,6797,6869,1380,1274,1578,1391,1174
ST-2279,2279,2279. 교대역 5번출구뒤,서초구,서울특별시 동대문구 사가정로 150 ,37.577877,127.061684,1359,6795,7260,1400,1387,1515,1267,1226
ST-380,380,380. CJ제일제당 앞,중구,서울특별시 영등포구 영등포로34길 9 영등포 영남 공용 주차장,37.519463,126.902649,1358,6790,7348,1229,1418,1551,1375,1217
ST-2110,2110,2110. 조원동 미성아파트,관악구,서울특별시 도봉구 도봉로 496 ,37.64967,127.035614,1355.2,6776,7906,1452,1413,1588,1214,1109
ST-773,773,"773.염창역 3, 4번 출구 사이",양천구,서울특별시 서초구 강남대로 27 양재동 238,37.46769,127.04036,1348.6,6743,6756,1316,1348,1569,1349,1161
ST-2070,2070,2070. 노량진역 2번 출구 앞,동작구,서울특별시 노원구 중계로 233 청구3차아파트 ,37.650505,127.073982,1347.8,6739,8108,1215,1360,1806,1305,1053
ST-2710,2710,2710.라이품 공영주차장 앞,강서구,서울특별시 노원구 서울 노원구 상계동 694-1 ,37.662144,127.058197,1346.8,6734,5223,1250,1294,1569,1352,1269
ST-3408,3408,3408.종로타워빌딩,종로구,서울특별시 마포구 대흥로 36 ,37.544033,126.93869,1343.6,6718,6652,1403,1168,1433,1344,1370
ST-1552,1552,1552. 강북구청사거리,강북구,서울특별시 서초구 청계산로7길 43 서초 포레스타5단지,37.450661,127.05706,1340,6700,6679,1370,1387,1457,1266,1220
ST-289,289,289. 대림3동사거리,영등포구,서울특별시 영등포구 문래동3가 55-12 문래역 4번출구 앞,37.518738,126.895576,1334.6,6673,7202,1482,1400,1523,1176,1092
ST-758,758,758. 한사랑교회 앞,양천구,서울특별시 서초구 방배동 388-5 ,37.489769,126.986763,1333.4,6667,6787,1351,1420,1459,1166,1271
ST-335,335,335. 종로3가역 15번출구 뒤,종로구,서울특별시 용산구 이촌동301-5 LIG강촌아파트 103동앞,37.518509,126.978798,1332.8,6664,6648,1376,1311,1435,1225,1317
ST-1529,1529,1529. 미아동 한국전력공사,강북구,서울특별시 구로구 구일로 126 삼성전자 물류센터 앞,37.496998,126.87178,1331.6,6658,6645,1314,1297,1556,1332,1159
ST-2737,2737,2737.까치산역 3번 출구,강서구,서울특별시 강동구 암사동 414-22(강동롯데캐슬퍼스트아파트 107동 뒤편) ,37.558456,127.144157,1331.2,6656,7594,1273,1386,1498,1267,1232
ST-239,239,239. 유스호스텔 앞,영등포구,서울특별시 성동구 옥수동 산5-148 옥수동성당 옆,37.543663,127.014061,1329.8,6649,6169,1426,1392,1480,1181,1170
ST-108,108,108. 서교동 사거리,마포구,서울특별시 성동구 왕십리로 지하77 서울숲역 4번 출구 옆,37.544582,127.044609,1324,6620,6844,1277,1370,1540,1249,1184
ST-400,400,400. 상암한화오벨리스크 1차 앞,마포구,서울특별시 동대문구 홍릉로 1 기업은행 청량리지점 ,37.580498,127.044724,1322.8,6614,7014,1360,1469,1520,1165,1100
ST-2537,2537,2537.양재역 8번출구 앞,서초구,서울특별시 마포구 상암산로 48-6 중앙일보빌딩 ,37.577305,126.890183,1320.4,6602,4819,1293,1285,1471,1266,1287
ST-2821,2821,2821.청구아파트 앞,구로구,서울특별시 영등포구 영등포동 649-1 ,37.514702,126.91214,1318.8,6594,6090,1276,1351,1558,1250,1159
ST-334,334,334. 종로3가역 2번출구 뒤,종로구,서울특별시 용산구 한강로1가 228-1 삼각지역 3번출구,37.533512,126.972275,1318.2,6591,6428,1385,1205,1364,1400,1237
ST-3206,3206,3206.문래동 주민센터,영등포구,서울특별시 동대문구 정릉천동로 90 현대아파트 ,37.579948,127.035324,1317.4,6587,6537,1371,1360,1478,1213,1165
ST-355,355,355. 서울사대부설초등학교 앞,종로구,서울특별시 성동구 광나루로 334 화양사거리,37.548149,127.06707,1316,6580,6713,1307,1298,1547,1227,1201
ST-1440,1440,1440. 면목2동 사거리,중랑구,서울특별시 중구 청계천로 400 롯데캐슬베네치아 ,37.571014,127.019745,1314.4,6572,8098,1386,1312,1456,1261,1157
ST-3128,3128,3128.동신병원 맞은편,서대문구,서울특별시 강서구 마곡중앙10로 70 LG사이언스파크 ,37.563648,126.834541,1313,6565,6538,1149,1316,1559,1373,1168
ST-1920,1920,1920. 서울미래초등학교 사거리,구로구,서울특별시 서초구 반포대로 275 래미안퍼스티지아파트 ,37.503624,126.997322,1311.4,6557,5637,1279,1443,1443,1171,1221
ST-1233,1233,1233. 잠실3거리(갤러리아팰리스),송파구,서울특별시 구로구 경인로2길 10 오청초교 앞 보도육교,37.490723,126.826393,1309.8,6549,5791,1187,1331,1504,1347,1180
ST-1288,1288,1288. 문정중교 사거리,송파구,서울특별시 노원구 초안산로 12 인덕대학교,37.629349,127.054825,1309.6,6548,6065,1423,1388,1457,1186,1094
ST-2214,2214,2214. 신반포역 2번출구 앞,서초구,서울특별시 서대문구 수색로 100 DMC래미안e편한세상 ,37.576263,126.911324,1309.2,6546,7196,1207,1321,1619,1464,935
ST-340,340,340. 혜화동 로터리,종로구,서울특별시 마포구 합정동 450-47 ,37.551365,126.903061,1309,6545,6710,1394,1360,1519,1172,1100
ST-1411,1411,1411. 상봉시장앞 교차로 한성빌딩 앞,중랑구,서울특별시 송파구 성내천로47길 23 송파파크데일 2단지입구 앞 주차장,37.495659,127.157173,1307,6535,6599,1352,1345,1501,1276,1061
ST-1767,1767,1767.방학초등학교 앞,도봉구,서울특별시 강동구 명일동 47-20 ,37.55365,127.156227,1306.4,6532,7874,1334,1264,1485,1260,1189
ST-1685,1685,1685. 불암고등학교 앞 횡단보도,노원구,서울특별시 송파구 가락동 616-2 ,37.48872,127.109825,1304.4,6522,6495,1419,1200,1479,1182,1242
ST-838,838,838. 숙대입구역 4번출구,용산구,서울특별시 송파구 송파대로 지하 257 송파구 가락동 214-3,37.493179,127.118546,1301.6,6508,7723,1185,1278,1581,1282,1182
ST-2169,2169,2169. 봉천역 2번출구,관악구,서울특별시 마포구 서강로 117 ,37.553429,126.933792,1300.4,6502,7874,1509,1427,1366,1108,1092
ST-2645,2645,2645.잠실나들목2(엘스아파트136동),송파구,서울특별시 영등포구 영등포구 의사당대로 1 ,37.530502,126.912895,1299.6,6498,6446,1930,1253,1284,1047,984
ST-1707,1707,1707. 도봉구민회관,도봉구,서울특별시 송파구 송파대로 201 테라타워2,37.48835,127.120781,1297.4,6487,6188,1438,1377,1314,1154,1204
ST-2709,2709,2709.강변아파트 310동 앞,강서구,서울특별시 노원구 서울 노원구 상계동 650 ,37.667828,127.056839,1297.4,6487,6277,1280,1390,1753,1180,884
ST-1119,1119,1119. 염창동 한마음아파트 앞,강서구,서울특별시 노원구 상계동 1118-9 맥도날드 상계점 앞,37.672375,127.055992,1295.2,6476,6433,1337,1374,1515,1285,965
ST-1227,1227,1227. 거여역 8번출구 뒤,송파구,서울특별시 구로구 개봉동 139-4 ,37.497242,126.859123,1294.8,6474,6624,1326,1314,1494,1196,1144
ST-2902,2902,2902.공릉풍림아파트 108동,노원구,서울특별시 영등포구 영등포구 도신로(신길우성4차 401동 앞) ,37.512833,126.917633,1294.2,6471,6813,1347,1356,1386,1222,1160
ST-711,711,711. 신일해피트리아파트 앞,양천구,서울특별시 관악구 난곡로 317 신림동 538,37.4818,126.915237,1289.6,6448,1513,1386,1415,1253,1108,1286
ST-314,314,314. 국립현대미술관,종로구,서울특별시 양천구 중앙로 209 신정3동주민센터,37.515156,126.854897,1288,6440,6402,1320,1142,1491,1370,1117
ST-215,215,215. 여의도고교 앞,영등포구,서울특별시 서대문구 영천동 259-1 독립문 어린이 공원,37.571259,126.96048,1283.6,6418,6570,1166,1414,1676,1310,852
ST-327,327,327. 낙원상가 옆,종로구,서울특별시 용산구 한강로3가 16-8 전자랜드 본관 앞,37.533066,126.960732,1281.6,6408,6456,1377,1341,1392,1210,1088
ST-1929,1929,1929. 고척근린공원 고척도서관 앞,구로구,서울특별시 서초구 반포대로 201 국립중앙도서관 ,37.497211,127.004272,1281.6,6408,4986,1289,1326,1344,1200,1249
ST-557,557,557. 도선동 주민센터 앞,성동구,서울특별시 성북구 정릉로27가길 28-2 성북구 정릉동 138-15,37.603245,127.014191,1281.2,6406,7191,1344,1247,1399,1256,1160
ST-2187,2187,2187. 현대시장사거리,관악구,서울특별시 용산구 용산동5가 17 ,37.52177,126.977005,1280.4,6402,4076,1315,1324,1363,1173,1227
ST-915,915,915. 증산역 4번출구,은평구,서울특별시 노원구 동일로 지하 1662 노원구 상계동 1263,37.676941,127.055099,1276.2,6381,7162,1318,1348,1494,1149,1072
ST-2211,2211,2211. 서초구립반포도서관 앞,서초구,서울특별시 서대문구 남가좌동 3-91 ,37.583344,126.922745,1274,6370,6400,1294,1282,1339,1195,1260
ST-256,256,256. 동아에코빌입구,영등포구,서울특별시 광진구 광장동 561-15 광남중학교,37.54073,127.102905,1273.2,6366,6169,1281,1284,1398,1220,1183
ST-2530,2530,2530.삼호3차아파트 앞,서초구,서울특별시 마포구 마포구 창전동 246-34 ,37.547379,126.931633,1268.2,6341,6653,1168,1315,1616,1250,992
ST-339,339,339. 종로4가 사거리,종로구,서울특별시 마포구 마포나루길 467 망원초록길 입구,37.551342,126.902672,1268.2,6341,6076,1259,1269,1366,1249,1198
ST-426,426,426. 서울신용보증재단,마포구,서울특별시 영등포구 당산로52길 3 당산육갑문,37.535339,126.903679,1265.2,6326,7352,1338,1348,1433,1167,1040
ST-356,356,356. KT혜화지사 앞,종로구,서울특별시 성동구 광나루로 297 성동세무서 부근,37.548164,127.06237,1264.8,6324,6236,1366,1301,1361,1137,1159
ST-818,818,818. 숙명여대 입구 교차로,용산구,서울특별시 강남구 남부순환로 2748 3호선 매봉역 3번출구앞,37.486767,127.046761,1264.8,6324,6943,1243,1257,1520,1158,1146
ST-1960,1960,1960. 구로거리공원 동측(신도림역 방면),구로구,서울특별시 구로구 개봉로19길 87 로얄파크 ,37.493965,126.853043,1261.4,6307,5711,1361,1367,1430,1086,1063
ST-3125,3125,3125.연희파크푸르지오아파트 앞,서대문구,서울특별시 강서구 공항대로 543 센터스퀘어 ,37.550648,126.866165,1258,6290,6339,1328,1255,1393,1220,1094
ST-3221,3221,3221.서울특별시 남부교육지원청,영등포구,서울특별시 서초구 양재천로19길 4 ,37.475559,127.038261,1254.4,6272,6493,1973,1151,1229,967,952
ST-2056,2056,2056. 동작구민 체육센터,동작구,서울특별시 강서구 내발산동 741-2 ,37.553631,126.828613,1254.4,6272,5960,1282,1333,1373,1102,1182
ST-1743,1743,1743.창동19단지아파트 관리사무소앞,도봉구,서울특별시 서초구 양재대로12길 74 서울추모공원,37.453701,127.043182,1254,6270,6074,1468,1523,1355,958,966
ST-2375,2375,2375. 수서역 1번출구 앞,강남구,서울 관악구 신림로 115 ,37.470688,126.936485,1252.6,6263,7358,1082,1259,1570,1258,1094
ST-2648,2648,2648.헬리오시티 112동 앞,송파구,서울특별시 영등포구 영등포구 의사당대로 1 ,37.528641,126.915108,1250.4,6252,5881,1237,1225,1431,1284,1075
ST-454,454,454. 종로2가 버스정류장 (종각방향),종로구,서울특별시 은평구 대조동 207-8 연신내역 5번출구,37.61721,126.919579,1250.2,6251,6241,1324,1224,1393,1193,1117
ST-2911,2911,2911.상계역중앙시장,노원구,"서울특별시 금천구 시흥동 808-5,6 ",37.458382,126.908073,1249,6245,6246,1355,1269,1315,1178,1128
ST-1640,1640,1640. 한내근린공원 북측,노원구,서울특별시 노원구 동일로 지하 1530-1 마들역 3번출구,37.665249,127.057892,1248.4,6242,6837,1280,1322,1405,1235,1000
ST-2106,2106,2106. 세이브마트,관악구,서울특별시 도봉구 시루봉로 188 방학중학교 ,37.665623,127.03109,1246.6,6233,8092,1282,1321,1423,1169,1038
ST-320,320,320. 을지로입구역 4번출구 앞,중구,서울특별시 양천구 신월동 790 양서중학교 옆,37.533047,126.829956,1244.4,6222,6216,1238,1143,1362,1449,1030
ST-1677,1677,1677. 육군사관학교  앞,노원구,서울특별시 영등포구 당산로31길 32 쌍용예가(구청별관) 101동 인근,37.528099,126.893387,1243.6,6218,6551,1152,1047,1505,1288,1226
ST-2171,2171,2171. 서울대입구역 5번출구,관악구,서울특별시 용산구 이태원로 22 ,37.534523,126.977501,1242.2,6211,6228,1191,1317,1413,1161,1129
ST-281,281,281. 대림신동아아파트 앞,영등포구,서울특별시 영등포구 양평동3가 14-1 양평우림 이비즈센타 앞,37.52565,126.887817,1241.2,6206,6128,1290,1307,1425,1161,1023
ST-2515,2515,2515.서초초등학교 후문,서초구,서울특별시 중구 태평로1가61-29 ,37.567776,126.977333,1241,6205,6233,1205,1303,1391,1179,1127
ST-1627,1627,1627. 수락산역 4번출구,노원구,서울특별시 송파구 토성로 2 삼표레미콘 앞,37.531311,127.111282,1239,6195,6161,1316,1355,1352,1102,1070
ST-949,949,949. 연신내역 1번 출구 ,은평구,서울특별시 서초구 동작대로 204 청남빌딩 ,37.494743,126.983063,1237.4,6187,7258,1196,1270,1378,1173,1170
ST-722,722,722. 경서농협 버스정류장(우리은행신정동지점방향),양천구,서울특별시 관악구 낙성대로 70 관악구 봉천동 274-4,37.471989,126.958427,1233.6,6168,6340,1278,1365,1362,1066,1097
ST-367,367,367. 독립문역 3-1번출구 ,종로구,서울특별시 성동구 뚝섬로1길 43 성수문화복지회관 앞,37.545208,127.047142,1230.4,6152,4199,1309,1221,1257,1223,1142
ST-420,420,420. 서울시 공공자전거 상암센터,마포구,서울특별시 영등포구 영등포로 177 영등포청과시장 사거리,37.520294,126.901192,1230,6150,5118,1003,1061,1431,1476,1179
ST-1267,1267,1267. 올림픽공원 남2문 앞,송파구,서울특별시 관악구 신림로 41 나들목공원,37.469406,126.944511,1226.2,6131,5672,1143,1142,1362,1310,1174
ST-2013,2013,2013. 장승배기역 5번출구,동작구,서울특별시 양천구 신정동 204-20 ,37.507904,126.862648,1225.8,6129,4824,1170,1318,1380,1210,1051
ST-1987,1987,1987. 개봉아이파크아파트 앞,구로구,서울특별시 영등포구 의사당대로 1 국회 ,37.532665,126.913765,1225.2,6126,6466,1191,1177,1417,1283,1058
ST-2904,2904,2904.중계3차청구아파트,노원구,서울특별시 중랑구 동일로 540 ,37.579845,127.08242,1224.4,6122,6080,1210,1222,1274,1186,1230
ST-1665,1665,1665. 양지근린공원앞,노원구,서울특별시 강북구 도봉로 71 송천동우체국,37.615459,127.029701,1222.2,6111,4466,1345,1136,1253,1118,1259
ST-2244,2244,2244. 말죽거리공원 사거리,서초구,서울특별시 은평구 진관4로 26 진관고등학교 ,37.643509,126.924103,1217.8,6089,6541,1297,1281,1382,1157,972
ST-455,455,455. 종로6가역 버스정류장(동대문 방향),종로구,서울특별시 은평구 은평로 85 CJ드림시티 ,37.599495,126.916985,1216.6,6083,6278,1257,1082,1401,1212,1131
ST-1470,1470,1470.중화동 우리은행 앞,중랑구,서울특별시 도봉구 덕릉로 404 창동주공17단지 상가앞,37.646309,127.052742,1215.8,6079,6492,1368,1321,1251,1118,1021
ST-815,815,815. LIG강촌아파트 103동앞,용산구,서울특별시 강남구 역삼동 708-7 ,37.504105,127.049034,1215.4,6077,6376,826,1346,1531,1315,1059
ST-1428,1428,1428. 원묵고등학교,중랑구,서울특별시 광진구 군자로 114 세종대학교,37.550236,127.073822,1215.4,6077,2976,1179,1327,1309,1126,1136
ST-148,148,148. 용강동 주민센터 앞,마포구,서울특별시 중구 을지로 100 을지로2가 사거리 남측,37.56599,126.987793,1214.6,6073,6366,1107,1258,1544,1211,953
ST-777,777,777.신월6차보람아파트 앞,양천구,서울특별시 강남구 압구정로 134 현대고등학교 건너편,37.524071,127.02179,1213,6065,6235,1149,1244,1417,1132,1123
ST-2605,2605,2605. 복정역 1번 출구 앞,송파구,서울특별시 송파구 장지동 662 ,37.476002,127.1231,1212.2,6061,6133,1442,448,1546,1358,1267
ST-407,407,407. 마포구 육아종합지원센터,마포구,서울특별시 동대문구 홍릉로 26-1 거리가게 ,37.58255,127.044601,1211.8,6059,6275,1197,1194,1505,1199,964
ST-2108,2108,2108. 은천치안센터,관악구,서울특별시 도봉구 쌍문동 83-7 ,37.646847,127.033417,1211.6,6058,6286,1234,1246,1302,1230,1046
ST-849,849,849. 삼각지 자이아파트,용산구,서울특별시 중랑구 면목로 325 ,37.58099,127.088242,1211.6,6058,6554,1093,1275,1416,1159,1115
ST-453,453,453. 종로오가 지하쇼핑센터 14번출구,종로구,서울특별시 은평구 진관동 86-31 구파발역 2번출구,37.636234,126.918999,1209.2,6046,5992,1120,1176,1347,1232,1171
ST-513,513,513. 뚝섬역 5번 출구 정류소 옆,성동구,서울특별시 강서구 마곡서로 175 강서구 마곡동 754-6,37.568577,126.824776,1208.4,6042,5962,1211,1054,1332,1297,1148
ST-2542,2542,2542.신논현타워 앞,서초구,서울특별시 광진구 광진구 광나루로 416 ,37.546513,127.075714,1207.8,6039,5687,1245,1204,1227,1190,1173
ST-3121,3121,3121.가좌삼거리,서대문구,서울특별시 성동구 아차산로 83 에프투텔레콤 ,37.545559,127.053368,1205.8,6029,5839,1198,1225,1335,1167,1104
ST-610,610,610. 동대문중 교차로,동대문구,서울특별시 노원구 동일로 1351 노원구 상계동 747,37.649212,127.061768,1204.4,6022,5672,1164,1228,1349,1143,1138
ST-2711,2711,2711.가로공원공영주차장 1번 출구,강서구,서울특별시 노원구 한글비석로 263 성모빌딩 ,37.651161,127.076591,1203.8,6019,6844,1281,1084,1334,1237,1083
ST-223,223,223. 진주아파트상가 앞,영등포구,서울특별시 서대문구 남가좌동 385-16 ,37.573818,126.919235,1200.2,6001,5523,1189,1333,1295,1108,1076
ST-1630,1630,1630. 수연빌딩 앞,노원구,서울특별시 동대문구 답십리동 2-221 ,37.572884,127.066048,1199.4,5997,6008,1220,1315,1342,1108,1012
ST-2539,2539,2539.대한무역투자진흥공사 KOTRA 앞,서초구,서울특별시 강서구 화곡로 215 강서문화센터 ,37.544579,126.843781,1196.8,5984,6080,1333,1188,1413,1006,1044
ST-1726,1726,1726. 삼익세라믹아파트교차로,도봉구,서울특별시 도봉구 우이천로 367 북한산 코오롱 하늘채,37.648891,127.023018,1194.4,5972,5796,1372,1258,1202,1138,1002
ST-908,908,908. 구산역 4번출구,은평구,서울특별시 송파구 위례성대로 114 송파구 방이동 75,37.513962,127.121674,1193.2,5966,6531,1172,1167,1338,1221,1068
ST-3220,3220,3220.래미안에스티움 앞 (신풍로),영등포구,서울특별시 서초구 남부순환로 2311-12 래미안방배아트힐 ,37.477306,127.00592,1191.4,5957,6165,1244,1197,1289,1075,1152
ST-985,985,985. 은평세무서 버스정류장(은평구청 방면),은평구,서울특별시 광진구 능동로 지하 417 중곡역 1번출구 앞,37.565659,127.084297,1191,5955,6005,1254,1312,1402,1000,987
ST-2423,2423,2423.영희초교 사거리(래미안개포루체하임),강남구,서울특별시 종로구 평창문화로 59-2 구두수선 ,37.606049,126.967636,1190.6,5953,6477,1192,1288,1332,1086,1055
ST-1770,1770,1770.도봉한신아파트 주변,도봉구,서울특별시 중구 세종대로 7-1 가로판매대56 ,37.557602,126.97258,1190.4,5952,6125,1223,1118,1515,1115,981
ST-1749,1749,1749. ESA아파트 상가 앞,도봉구,서울특별시 성동구 청계천로 432 윤수네집,37.570896,127.024956,1190,5950,5983,1277,1262,1418,1057,936
ST-336,336,336. 충무로역 6번출구 앞,중구,서울특별시 종로구 서린동 26-1 종각역 5번출구,37.569836,126.982658,1187,5935,5629,1165,1078,1285,1224,1183
ST-276,276,276. 영등포로터리2,영등포구,서울특별시 동대문구 답십리동 94-2 청솔우성아파트 앞,37.574203,127.057693,1186.8,5934,5858,1107,1176,1424,1185,1042
ST-2189,2189,2189. 봉천역 4번출구,관악구,서울특별시 용산구 한남동 산10-138 ,37.540794,126.997849,1184,5920,6807,1231,1267,1354,1102,966
ST-331,331,331. 을지로2가 사거리 북측,중구,서울특별시 용산구 용산동2가 5-1812 이태원지하보도,37.53841,126.986649,1184,5920,5924,1216,1003,1300,1254,1147
ST-1741,1741,1741. 제일강산수산입구,도봉구,서울특별시 영등포구 의사당대로 1 국회의사당,37.532291,126.914009,1181.6,5908,5031,1170,1148,1418,1147,1025
ST-1148,1148,1148. 볏골공원,강서구,서울특별시 금천구 독산동 1091 ,37.460934,126.887169,1179.6,5898,5652,1357,1295,1256,1002,988
ST-1848,1848,1848. 벽산 디지털밸리 5차,금천구,서울특별시 강동구 성내동 472 ,37.528122,127.119522,1179.4,5897,6554,1223,1216,1324,1048,1086
ST-2333,2333,2333. 양재역 3번출구 주변,강남구,서울특별시 성동구 자동차시장길 11 대승모터스 ,37.559799,127.056328,1179.2,5896,3374,1391,1283,1172,999,1051
ST-2538,2538,2538.사평리근린공원,서초구,서울특별시 강서구 공항대로 260 이화의대부속서울병원 ,37.55846,126.836761,1179.2,5896,6285,1376,1409,1315,1054,742
ST-124,124,124. 서강대 정문 건너편,마포구,서울특별시 종로구 새문안로 82 광화문S타워 앞,37.569969,126.973938,1179.2,5896,5324,1148,1138,1338,1192,1080
ST-1229,1229,1229. 송파체육문화회관 앞,송파구,서울특별시 구로구 고척로21길 85 참새공원(백곡경노당),37.505138,126.844337,1177.8,5889,5844,1180,1208,1438,1036,1027
ST-2080,2080,2080. 대방지하보도(대방동경남아너스빌아파트),동작구,서울특별시 노원구 노원로 75 한국원자력의학원 ,37.629509,127.081039,1177,5885,6265,1172,1155,1394,1130,1034
ST-916,916,916. 평생학습관 앞,은평구,서울특별시 도봉구 도봉로 683 방학동 726-92,37.665665,127.042671,1171.2,5856,6574,1207,1295,1355,1065,934
ST-627,627,627. 장안동삼거리 교통섬,동대문구,서울특별시 금천구 금하로 668 시흥동 1000-82,37.453121,126.904312,1171.2,5856,6001,1233,1193,1274,1095,1061
ST-2413,2413,2413.도곡역 1번 출구,강남구,서울특별시 강동구 고덕로 240 신동아아파트 ,37.554733,127.153,1166.4,5832,6210,1046,1084,1415,1161,1126
ST-1605,1605,1605. 헬스케어,노원구,서울특별시 종로구 종로 239 동대문 종합시장 버스정류장,37.571239,127.00441,1166.2,5831,6786,1110,1105,1309,1154,1153
ST-199,199,199. 서울 월드컵 경기장,마포구,서울특별시 중구 청파로 456 종로학원본원 앞,37.55978,126.968506,1165.6,5828,3473,1141,1082,1386,1281,938
ST-1203,1203,1203. 밀리아나2빌딩 앞,송파구,서울특별시 성북구 월계로 32 ,37.610573,127.033669,1164.8,5824,6126,1186,1164,1366,1114,994
ST-3120,3120,3120.DMC엘가아파트 앞,서대문구,서울특별시 성동구 성수이로 134 현대자동차써비스(주)동부사업소 ,37.546978,127.057968,1163.4,5817,5575,1153,1175,1357,1104,1028
ST-800,800,800. 목월공원 앞,용산구,서울특별시 강남구 영동대로 502 삼성역 7번출구,37.509575,127.063408,1160.4,5802,5550,1207,1179,1330,1085,1001
ST-1110,1110,1110. 공항중학교앞,강서구,서울특별시 강북구 번동 386-17 번동 두산위브 101동 옆,37.636261,127.032173,1157.6,5788,5932,1039,1149,1354,1158,1088
ST-374,374,374. 신당동주민센터앞,중구,서울특별시 성동구 용답25길 1 용답초등학교,37.561012,127.054237,1156.6,5783,6127,1357,1299,1177,1043,907
ST-359,359,359. 원남동사거리,종로구,서울특별시 성동구 고산자로 260 성동광진 교육지원청 앞,37.564606,127.036522,1154.4,5772,6197,1172,993,1337,1197,1073
ST-1974,1974,1974. 신도림2차e편한세상아파트 203동 앞,구로구,서울특별시 영등포구 도신로15길 5 영등포 다목적 배드민턴 체육관 ,37.506115,126.89859,1151,5755,5438,1114,1245,1205,1088,1103
ST-1651,1651,1651. 상계동 우방유쉘아파트 앞,노원구,서울특별시 영등포구 가마산로 343 대림3동사거리(하나은행),37.499859,126.89724,1149.8,5749,5747,1214,1165,1240,1098,1032
ST-2247,2247,2247.섬들근린공원,서초구,서울특별시 은평구 신사동 178-9 ,37.591862,126.906082,1149,5745,6147,1081,1069,1339,1180,1076
ST-1456,1456,1456. 상아빌딩(우림시장 교차로),중랑구,서울특별시 성북구 성북로 25 성북동 치안센터 앞,37.590172,127.004089,1148.4,5742,6348,1278,1177,1211,1039,1037
ST-143,143,143. 공덕역 2번출구,마포구,서울특별시 종로구 삼일대로 428 낙원상가 옆,37.573357,126.987465,1147.6,5738,7055,1204,1202,1322,1041,969
ST-401,401,401. 상암월드컵파크 10단지 앞,마포구,서울특별시 동대문구 이문로 107 외국어대 정문 앞,37.59602,127.05983,1141,5705,5795,1159,1137,1278,1074,1057
ST-1408,1408,1408. 먹골역 6번출구 앞,중랑구,서울특별시 송파구 오금동 75-4 ,37.505627,127.136421,1140.8,5704,6265,1131,1127,1333,1139,974
ST-1375,1375,1375. 생명의 전화 종합복지관 앞 교차로,성북구,서울특별시 중랑구 망우로 297 상봉역 2번 출구,37.596329,127.085899,1139.2,5696,5725,1234,1102,1189,1061,1110
ST-832,832,832. 이촌1동 주민센터 뒤,용산구,서울특별시 강서구 방화대로47가길 22 강서구 방화동 830-15,37.577213,126.813553,1139,5695,5752,1316,1144,1329,1063,843
ST-2221,2221,2221. 방일초교 마을버스 정류장,서초구,서울특별시 성북구 길음동 1280-5 ,37.609295,127.018478,1138,5690,6211,1151,1233,1400,1052,854
ST-2327,2327,2327. 뱅뱅사거리 랜드마크타워 앞,강남구,서울특별시 성동구 행당동 33 ,37.55658,127.043358,1135.2,5676,6561,1126,1231,1295,1084,940
ST-1814,1814,1814. 두산위브아파트 옆 상가건물 앞,금천구,서울특별시 종로구 창신동 23-825 ,37.577724,127.015251,1133.6,5668,5362,1173,1150,1224,1049,1072
ST-1501,1501,"1501. 미아역 3번,4번 출구 사이",강북구,서울특별시 양천구 남부순환로 699 잣절보도육교 아래,37.506821,126.844299,1132.6,5663,5671,1207,1138,1229,1100,989
ST-1520,1520,1520. 수유중앙시장,강북구,서울특별시 강서구 까치산로24길 48 강서대학교 ,37.548286,126.853569,1131.6,5658,5978,1155,1229,1305,1027,942
ST-389,389,389. 을지로4가역 1번출구,중구,서울특별시 동대문구 전농동 693-1 ,37.57489,127.053535,1129.2,5646,5627,1066,1034,1251,1120,1175
ST-826,826,826. 서울역 서부교차로2,중구,서울특별시 성북구 성북로 132-1 만해공원,37.594402,126.99231,1129,5645,6727,961,1067,1371,1141,1105
ST-2408,2408,2408. 강남한양수자인아파트,강남구,서울특별시 광진구 군자로 114 세종초등학교 ,37.552372,127.07354,1127.2,5636,5661,1110,1186,1167,1148,1025
ST-1278,1278,1278. 송파구청 교차로,송파구,서울특별시 노원구 동일로 1342 당현천근린공원,37.649639,127.065605,1124.8,4499,4527,1894,1762,839,0,4
ST-1834,1834,1834. 월드메르디앙 벤처센터 2차,금천구,서울특별시 강동구 천호동 55-26 ,37.541145,127.141052,1123.8,5619,5765,1049,1001,1292,1134,1143
ST-674,674,674.고대앞사거리 교통섬,동대문구,서울특별시 구로구 남부순환로 1299 구로구 가리봉동 127-30,37.478741,126.895096,1121.2,5606,5771,962,984,1406,1160,1094
ST-343,343,343. 힐스테이트창경궁 아파트 앞,종로구,서울특별시 마포구 현석동 106-32 마포 신수공원 앞,37.542545,126.934296,1115.8,5579,5428,1125,1191,1270,1035,958
ST-457,457,457. 종로꽃시장 입구 옆,종로구,서울특별시 은평구 응암동 761-9 백련산 힐스테이트 3차,37.586994,126.922882,1115.4,5577,5816,1057,1038,1262,1053,1167
ST-1384,1384,1384.성신여대입구역 5번출구,성북구,서울특별시 성북구 보국문로 7-10 정릉도서관 앞,37.60479,127.010582,1114.6,5573,5620,1091,1104,1283,1051,1044
ST-150,150,150. 서강대역 2번출구 앞,마포구,서울특별시 종로구 종로 지하129 종로3가역 2번출구 뒤,37.570599,126.991791,1114.6,5573,5659,1064,1122,1378,992,1017
ST-958,958,958. 본 서부병원 버스정류장(은평 세무서 방면),은평구,"서울특별시 강남구 논현로10길 29 국립국악중,고교 정문 맞은편",37.475605,127.050377,1113,5565,5940,1019,1073,1408,1045,1020
ST-2369,2369,2369. KT선릉타워,강남구,서울특별시 동작구 장승배기로10가길 45 모던힐타운 ,37.502514,126.940651,1110.6,5553,5579,1330,1130,1167,1033,893
ST-242,242,242. 신길선원가와인아파트 앞,영등포구,서울특별시 성동구 용답동 224-1 용답토속공원 앞,37.563511,127.056725,1109.2,5546,2874,1189,1181,1130,1019,1027
ST-1805,1805,1805. 서울디지털운동장 앞,금천구,서울특별시 종로구 공평동 70-4 ,37.570705,126.983238,1109,5545,5624,1150,1101,1301,1176,817
ST-2503,2503,2503. 반포1동 서초빌딩 앞,서초구,서울특별시 동대문구 이문동 59 ,37.599552,127.069809,1107.4,5537,5710,1195,1168,1264,1003,907
ST-1941,1941,1941. 오류동역 2번출구,구로구,서울특별시 금천구 독산동 995-6 ,37.475071,126.903358,1102.4,5512,6551,1016,1006,1197,1124,1169
ST-2359,2359,"2359. 국립국악중,고교 정문 맞은편",강남구,서울특별시 동작구 사당동 164-72 ,37.487122,126.974358,1101.8,5509,5862,1195,1233,1174,930,977
ST-2086,2086,2086.삼일수영장 앞,동작구,서울특별시 노원구 상계동 225-5 ,37.651035,127.06871,1101.6,5508,4379,1185,1104,1193,958,1068
ST-1271,1271,1271. 송파도서관,송파구,서울특별시 광진구 광나루로 548-2 구두수선대 - 10 ,37.543842,127.0933,1098.6,5493,5469,1149,1238,1224,925,957
ST-2103,2103,2103. 신림동 우방아파트,관악구,서울특별시 도봉구 삼양로 610 산수디앤씨 ,37.65728,127.013756,1098.4,5492,5425,1170,1214,1145,982,981
ST-3212,3212,3212.신풍역 6번출구,영등포구,서울특별시 영등포구 당산로 83 ,37.521954,126.895508,1098.4,5492,5717,1116,1173,1156,1007,1040
ST-450,450,450. 효자동 삼거리,종로구,서울특별시 은평구 진관동 45-21 진관동 은빛초등학교,37.643108,126.918221,1097.2,5486,3339,1040,1118,1256,1001,1071
ST-1070,1070,1070.(시립)고덕평생학습관,강동구,서울특별시 송파구 송파동 68 석촌역 2번출구,37.505932,127.10775,1096.4,5482,4047,1109,1080,1268,1035,990
ST-341,341,341. 혜화역 3번출구 뒤,종로구,서울특별시 마포구 연남동 365-19 ,37.565388,126.919327,1093.8,5469,5364,1130,1086,1215,1057,981
ST-3131,3131,3131.연가교 교차로,서대문구,서울특별시 송파구 풍납동 436 ,37.52618,127.11676,1091.8,5459,5094,1015,1050,1269,1164,961
ST-1127,1127,1127. 화곡역 버스정류장,강서구,서울특별시 노원구 중계동 370 중계동 을지중학교,37.65033,127.071602,1090.4,5452,5457,1045,1092,1294,1099,922
ST-1809,1809,1809. LG전자 별관동(호서대 벤처타워 맞은편),금천구,서울특별시 종로구 종로 152 ,37.570313,126.994545,1089.2,5446,5639,1102,983,1182,1028,1151
ST-165,165,165. 중앙근린공원,서대문구,서울특별시 종로구 사직로9길 5 사직동주민센터,37.576332,126.96859,1088.8,5444,4414,1083,1093,1245,1067,956
ST-233,233,233. 양평1동 YP센터 앞,영등포구,서울특별시 서대문구 충정로3가 56-1 충정로역 7번출구 뒤,37.559967,126.962463,1087.6,5438,6053,1141,993,1180,1027,1097
ST-1729,1729,1729. 도봉한신아파트 버스정류장,도봉구,서울특별시 송파구 백제고분로 272 석촌고분역 4번출구,37.502338,127.096443,1087.2,5436,5574,1115,1101,1267,1020,933
ST-2277,2277,2277. 길마중4교 하부,서초구,서울특별시 동대문구 왕산로 202-1 가로판매대 ,37.580151,127.045799,1084.2,5421,5739,1133,1113,1337,1022,816
ST-3411,3411,3411.종묘,종로구,서울특별시 서대문구 남가좌동 389-2 ,37.577019,126.920151,1082.6,5413,5382,1095,888,1167,1211,1052
